header:
  stamp:
    sec: 1688998743
    nanosec: 892930705
  frame_id: camera_link
markers:
- id: 10
  pose:
    position:
      x: 0.010840730402412764
      y: 0.13035297534446785
      z: 1.5011777582947392
    orientation:
      x: 0.9994049439663555
      y: -0.029667585846713047
      z: 0.017435161630342953
      w: 0.002368008563608462
---
header:
  stamp:
    sec: 1688998744
    nanosec: 50791393
  frame_id: camera_link
markers:
- id: 10
  pose:
    position:
      x: 0.010840730402412764
      y: 0.13035297534446785
      z: 1.5011777582947392
    orientation:
      x: 0.9994049439663555
      y: -0.029667585846713047
      z: 0.017435161630342953
      w: 0.002368008563608462
---
header:
  stamp:
    sec: 1688998744
    nanosec: 93331951
  frame_id: camera_link
markers:
- id: 10
  pose:
    position:
      x: 0.010840730402412764
      y: 0.13035297534446785
      z: 1.5011777582947392
    orientation:
      x: 0.9994049439663555
      y: -0.029667585846713047
      z: 0.017435161630342953
      w: 0.002368008563608462
---
header:
  stamp:
    sec: 1688998744
    nanosec: 166210919
  frame_id: camera_link
markers:
- id: 10
  pose:
    position:
      x: 0.010840730402412764
      y: 0.13035297534446785
      z: 1.5011777582947392
    orientation:
      x: 0.9994049439663555
      y: -0.029667585846713047
      z: 0.017435161630342953
      w: 0.002368008563608462
---
header:
  stamp:
    sec: 1688998744
    nanosec: 218344175
  frame_id: camera_link
markers:
- id: 10
  pose:
    position:
      x: 0.010840730402412764
      y: 0.13035297534446785
      z: 1.5011777582947392
    orientation:
      x: 0.9994049439663555
      y: -0.029667585846713047
      z: 0.017435161630342953
      w: 0.002368008563608462
---
header:
  stamp:
    sec: 1688998744
    nanosec: 292663041
  frame_id: camera_link
markers:
- id: 10
  pose:
    position:
      x: 0.010840730402412764
      y: 0.13035297534446785
      z: 1.5011777582947392
    orientation:
      x: 0.9994049439663555
      y: -0.029667585846713047
      z: 0.017435161630342953
      w: 0.002368008563608462
---
header:
  stamp:
    sec: 1688998744
    nanosec: 365417158
  frame_id: camera_link
markers:
- id: 10
  pose:
    position:
      x: 0.010840730402412764
      y: 0.13035297534446785
      z: 1.5011777582947392
    orientation:
      x: 0.9994049439663555
      y: -0.029667585846713047
      z: 0.017435161630342953
      w: 0.002368008563608462
---
header:
  stamp:
    sec: 1688998744
    nanosec: 420918350
  frame_id: camera_link
markers:
- id: 10
  pose:
    position:
      x: 0.010840730402412764
      y: 0.13035297534446785
      z: 1.5011777582947392
    orientation:
      x: 0.9994049439663555
      y: -0.029667585846713047
      z: 0.017435161630342953
      w: 0.002368008563608462
---
header:
  stamp:
    sec: 1688998744
    nanosec: 484935068
  frame_id: camera_link
markers:
- id: 10
  pose:
    position:
      x: 0.010840730402412764
      y: 0.13035297534446785
      z: 1.5011777582947392
    orientation:
      x: 0.9994049439663555
      y: -0.029667585846713047
      z: 0.017435161630342953
      w: 0.002368008563608462
---
header:
  stamp:
    sec: 1688998744
    nanosec: 525918949
  frame_id: camera_link
markers:
- id: 10
  pose:
    position:
      x: 0.010840730402412764
      y: 0.13035297534446785
      z: 1.5011777582947392
    orientation:
      x: 0.9994049439663555
      y: -0.029667585846713047
      z: 0.017435161630342953
      w: 0.002368008563608462
---
header:
  stamp:
    sec: 1688998744
    nanosec: 587036018
  frame_id: camera_link
markers:
- id: 10
  pose:
    position:
      x: 0.010840730402412764
      y: 0.13035297534446785
      z: 1.5011777582947392
    orientation:
      x: 0.9994049439663555
      y: -0.029667585846713047
      z: 0.017435161630342953
      w: 0.002368008563608462
---
header:
  stamp:
    sec: 1688998744
    nanosec: 627308816
  frame_id: camera_link
markers:
- id: 10
  pose:
    position:
      x: 0.010840730402412764
      y: 0.13035297534446785
      z: 1.5011777582947392
    orientation:
      x: 0.9994049439663555
      y: -0.029667585846713047
      z: 0.017435161630342953
      w: 0.002368008563608462
---
header:
  stamp:
    sec: 1688998744
    nanosec: 677489124
  frame_id: camera_link
markers:
- id: 10
  pose:
    position:
      x: 0.010840730402412764
      y: 0.13035297534446785
      z: 1.5011777582947392
    orientation:
      x: 0.9994049439663555
      y: -0.029667585846713047
      z: 0.017435161630342953
      w: 0.002368008563608462
---
header:
  stamp:
    sec: 1688998744
    nanosec: 726193497
  frame_id: camera_link
markers:
- id: 10
  pose:
    position:
      x: 0.010821107883113678
      y: 0.13097009450065936
      z: 1.5039530770246317
    orientation:
      x: 0.9995015587957897
      y: -0.028877565977428663
      z: 0.01146917005509685
      w: -0.005583751987049906
---
header:
  stamp:
    sec: 1688998744
    nanosec: 793053995
  frame_id: camera_link
markers:
- id: 10
  pose:
    position:
      x: 0.010821107883113678
      y: 0.13097009450065936
      z: 1.5039530770246317
    orientation:
      x: 0.9995015587957897
      y: -0.028877565977428663
      z: 0.01146917005509685
      w: -0.005583751987049906
---
header:
  stamp:
    sec: 1688998744
    nanosec: 893711123
  frame_id: camera_link
markers:
- id: 10
  pose:
    position:
      x: 0.010821107883113678
      y: 0.13097009450065936
      z: 1.5039530770246317
    orientation:
      x: 0.9995015587957897
      y: -0.028877565977428663
      z: 0.01146917005509685
      w: -0.005583751987049906
---
header:
  stamp:
    sec: 1688998744
    nanosec: 965911656
  frame_id: camera_link
markers:
- id: 10
  pose:
    position:
      x: 0.010821107883113678
      y: 0.13097009450065936
      z: 1.5039530770246317
    orientation:
      x: 0.9995015587957897
      y: -0.028877565977428663
      z: 0.01146917005509685
      w: -0.005583751987049906
---
header:
  stamp:
    sec: 1688998745
    nanosec: 31008442
  frame_id: camera_link
markers:
- id: 10
  pose:
    position:
      x: 0.010821107883113678
      y: 0.13097009450065936
      z: 1.5039530770246317
    orientation:
      x: 0.9995015587957897
      y: -0.028877565977428663
      z: 0.01146917005509685
      w: -0.005583751987049906
---
header:
  stamp:
    sec: 1688998745
    nanosec: 100687779
  frame_id: camera_link
markers:
- id: 10
  pose:
    position:
      x: 0.010821107883113678
      y: 0.13097009450065936
      z: 1.5039530770246317
    orientation:
      x: 0.9995015587957897
      y: -0.028877565977428663
      z: 0.01146917005509685
      w: -0.005583751987049906
---
header:
  stamp:
    sec: 1688998745
    nanosec: 149466755
  frame_id: camera_link
markers:
- id: 10
  pose:
    position:
      x: 0.010840730402412764
      y: 0.13035297534446785
      z: 1.5011777582947392
    orientation:
      x: 0.9994049439663555
      y: -0.029667585846713047
      z: 0.017435161630342953
      w: 0.002368008563608462
---
header:
  stamp:
    sec: 1688998745
    nanosec: 226310217
  frame_id: camera_link
markers:
- id: 10
  pose:
    position:
      x: 0.010840730402412764
      y: 0.13035297534446785
      z: 1.5011777582947392
    orientation:
      x: 0.9994049439663555
      y: -0.029667585846713047
      z: 0.017435161630342953
      w: 0.002368008563608462
---
header:
  stamp:
    sec: 1688998745
    nanosec: 278495135
  frame_id: camera_link
markers:
- id: 10
  pose:
    position:
      x: 0.010840730402412764
      y: 0.13035297534446785
      z: 1.5011777582947392
    orientation:
      x: 0.9994049439663555
      y: -0.029667585846713047
      z: 0.017435161630342953
      w: 0.002368008563608462
---
header:
  stamp:
    sec: 1688998745
    nanosec: 328770311
  frame_id: camera_link
markers:
- id: 10
  pose:
    position:
      x: 0.010840730402412764
      y: 0.13035297534446785
      z: 1.5011777582947392
    orientation:
      x: 0.9994049439663555
      y: -0.029667585846713047
      z: 0.017435161630342953
      w: 0.002368008563608462
---
header:
  stamp:
    sec: 1688998745
    nanosec: 385114165
  frame_id: camera_link
markers:
- id: 10
  pose:
    position:
      x: 0.010840730402412764
      y: 0.13035297534446785
      z: 1.5011777582947392
    orientation:
      x: 0.9994049439663555
      y: -0.029667585846713047
      z: 0.017435161630342953
      w: 0.002368008563608462
---
header:
  stamp:
    sec: 1688998745
    nanosec: 463696461
  frame_id: camera_link
markers:
- id: 10
  pose:
    position:
      x: 0.010840730402412764
      y: 0.13035297534446785
      z: 1.5011777582947392
    orientation:
      x: 0.9994049439663555
      y: -0.029667585846713047
      z: 0.017435161630342953
      w: 0.002368008563608462
---
header:
  stamp:
    sec: 1688998745
    nanosec: 515344409
  frame_id: camera_link
markers:
- id: 10
  pose:
    position:
      x: 0.010840730402412764
      y: 0.13035297534446785
      z: 1.5011777582947392
    orientation:
      x: 0.9994049439663555
      y: -0.029667585846713047
      z: 0.017435161630342953
      w: 0.002368008563608462
---
header:
  stamp:
    sec: 1688998745
    nanosec: 565826727
  frame_id: camera_link
markers:
- id: 10
  pose:
    position:
      x: 0.010840730402412764
      y: 0.13035297534446785
      z: 1.5011777582947392
    orientation:
      x: 0.9994049439663555
      y: -0.029667585846713047
      z: 0.017435161630342953
      w: 0.002368008563608462
---
header:
  stamp:
    sec: 1688998745
    nanosec: 619126432
  frame_id: camera_link
markers:
- id: 10
  pose:
    position:
      x: 0.010840730402412764
      y: 0.13035297534446785
      z: 1.5011777582947392
    orientation:
      x: 0.9994049439663555
      y: -0.029667585846713047
      z: 0.017435161630342953
      w: 0.002368008563608462
---
header:
  stamp:
    sec: 1688998745
    nanosec: 674664853
  frame_id: camera_link
markers:
- id: 10
  pose:
    position:
      x: 0.010840730402412764
      y: 0.13035297534446785
      z: 1.5011777582947392
    orientation:
      x: 0.9994049439663555
      y: -0.029667585846713047
      z: 0.017435161630342953
      w: 0.002368008563608462
---
header:
  stamp:
    sec: 1688998745
    nanosec: 738669005
  frame_id: camera_link
markers:
- id: 10
  pose:
    position:
      x: 0.010840730402412764
      y: 0.13035297534446785
      z: 1.5011777582947392
    orientation:
      x: 0.9994049439663555
      y: -0.029667585846713047
      z: 0.017435161630342953
      w: 0.002368008563608462
---
header:
  stamp:
    sec: 1688998745
    nanosec: 783205329
  frame_id: camera_link
markers:
- id: 10
  pose:
    position:
      x: 0.010840730402412764
      y: 0.13035297534446785
      z: 1.5011777582947392
    orientation:
      x: 0.9994049439663555
      y: -0.029667585846713047
      z: 0.017435161630342953
      w: 0.002368008563608462
---
header:
  stamp:
    sec: 1688998745
    nanosec: 821027904
  frame_id: camera_link
markers:
- id: 10
  pose:
    position:
      x: 0.010821107883113678
      y: 0.13097009450065936
      z: 1.5039530770246317
    orientation:
      x: 0.9995015587957897
      y: -0.028877565977428663
      z: 0.01146917005509685
      w: -0.005583751987049906
- id: 190
  pose:
    position:
      x: -0.9651010689054293
      y: -0.42520406143878364
      z: 5.998655655064745
    orientation:
      x: 0.001468640369799977
      y: 0.7872846181774601
      z: 0.6165559463632339
      w: 0.006287931358736691
---
header:
  stamp:
    sec: 1688998745
    nanosec: 890484605
  frame_id: camera_link
markers:
- id: 10
  pose:
    position:
      x: 0.010821107883113678
      y: 0.13097009450065936
      z: 1.5039530770246317
    orientation:
      x: 0.9995015587957897
      y: -0.028877565977428663
      z: 0.01146917005509685
      w: -0.005583751987049906
- id: 190
  pose:
    position:
      x: -0.9651010689054293
      y: -0.42520406143878364
      z: 5.998655655064745
    orientation:
      x: 0.001468640369799977
      y: 0.7872846181774601
      z: 0.6165559463632339
      w: 0.006287931358736691
---
header:
  stamp:
    sec: 1688998745
    nanosec: 947144983
  frame_id: camera_link
markers:
- id: 10
  pose:
    position:
      x: 0.010821107883113678
      y: 0.13097009450065936
      z: 1.5039530770246317
    orientation:
      x: 0.9995015587957897
      y: -0.028877565977428663
      z: 0.01146917005509685
      w: -0.005583751987049906
- id: 190
  pose:
    position:
      x: -0.9651010689054293
      y: -0.42520406143878364
      z: 5.998655655064745
    orientation:
      x: 0.001468640369799977
      y: 0.7872846181774601
      z: 0.6165559463632339
      w: 0.006287931358736691
---
header:
  stamp:
    sec: 1688998746
    nanosec: 8613767
  frame_id: camera_link
markers:
- id: 10
  pose:
    position:
      x: 0.010821107883113678
      y: 0.13097009450065936
      z: 1.5039530770246317
    orientation:
      x: 0.9995015587957897
      y: -0.028877565977428663
      z: 0.01146917005509685
      w: -0.005583751987049906
- id: 190
  pose:
    position:
      x: -0.9651010689054293
      y: -0.42520406143878364
      z: 5.998655655064745
    orientation:
      x: 0.001468640369799977
      y: 0.7872846181774601
      z: 0.6165559463632339
      w: 0.006287931358736691
---
header:
  stamp:
    sec: 1688998746
    nanosec: 97305251
  frame_id: camera_link
markers:
- id: 10
  pose:
    position:
      x: 0.010821107883113678
      y: 0.13097009450065936
      z: 1.5039530770246317
    orientation:
      x: 0.9995015587957897
      y: -0.028877565977428663
      z: 0.01146917005509685
      w: -0.005583751987049906
- id: 190
  pose:
    position:
      x: -0.9651010689054293
      y: -0.42520406143878364
      z: 5.998655655064745
    orientation:
      x: 0.001468640369799977
      y: 0.7872846181774601
      z: 0.6165559463632339
      w: 0.006287931358736691
---
header:
  stamp:
    sec: 1688998746
    nanosec: 158364423
  frame_id: camera_link
markers:
- id: 10
  pose:
    position:
      x: 0.010840730402412764
      y: 0.13035297534446785
      z: 1.5011777582947392
    orientation:
      x: 0.9994049439663555
      y: -0.029667585846713047
      z: 0.017435161630342953
      w: 0.002368008563608462
---
header:
  stamp:
    sec: 1688998746
    nanosec: 221337973
  frame_id: camera_link
markers:
- id: 10
  pose:
    position:
      x: 0.010840730402412764
      y: 0.13035297534446785
      z: 1.5011777582947392
    orientation:
      x: 0.9994049439663555
      y: -0.029667585846713047
      z: 0.017435161630342953
      w: 0.002368008563608462
---
header:
  stamp:
    sec: 1688998746
    nanosec: 362119948
  frame_id: camera_link
markers:
- id: 10
  pose:
    position:
      x: 0.010840730402412764
      y: 0.13035297534446785
      z: 1.5011777582947392
    orientation:
      x: 0.9994049439663555
      y: -0.029667585846713047
      z: 0.017435161630342953
      w: 0.002368008563608462
---
header:
  stamp:
    sec: 1688998746
    nanosec: 422995197
  frame_id: camera_link
markers:
- id: 10
  pose:
    position:
      x: 0.010840730402412764
      y: 0.13035297534446785
      z: 1.5011777582947392
    orientation:
      x: 0.9994049439663555
      y: -0.029667585846713047
      z: 0.017435161630342953
      w: 0.002368008563608462
---
header:
  stamp:
    sec: 1688998746
    nanosec: 499158669
  frame_id: camera_link
markers:
- id: 10
  pose:
    position:
      x: 0.010821107883113678
      y: 0.13097009450065936
      z: 1.5039530770246317
    orientation:
      x: 0.9995015587957897
      y: -0.028877565977428663
      z: 0.01146917005509685
      w: -0.005583751987049906
---
header:
  stamp:
    sec: 1688998746
    nanosec: 545426800
  frame_id: camera_link
markers:
- id: 10
  pose:
    position:
      x: 0.010821107883113678
      y: 0.13097009450065936
      z: 1.5039530770246317
    orientation:
      x: 0.9995015587957897
      y: -0.028877565977428663
      z: 0.01146917005509685
      w: -0.005583751987049906
- id: 930
  pose:
    position:
      x: -0.5053916469167136
      y: -0.25242143432014574
      z: 0.4860229606103259
    orientation:
      x: 0.08506442968471148
      y: 0.7056540524836202
      z: 0.616676277427229
      w: -0.33841804011363574
---
header:
  stamp:
    sec: 1688998746
    nanosec: 590788306
  frame_id: camera_link
markers:
- id: 10
  pose:
    position:
      x: 0.010821107883113678
      y: 0.13097009450065936
      z: 1.5039530770246317
    orientation:
      x: 0.9995015587957897
      y: -0.028877565977428663
      z: 0.01146917005509685
      w: -0.005583751987049906
---
header:
  stamp:
    sec: 1688998746
    nanosec: 626204601
  frame_id: camera_link
markers:
- id: 10
  pose:
    position:
      x: 0.010821107883113678
      y: 0.13097009450065936
      z: 1.5039530770246317
    orientation:
      x: 0.9995015587957897
      y: -0.028877565977428663
      z: 0.01146917005509685
      w: -0.005583751987049906
---
header:
  stamp:
    sec: 1688998746
    nanosec: 683511387
  frame_id: camera_link
markers:
- id: 10
  pose:
    position:
      x: 0.010821107883113678
      y: 0.13097009450065936
      z: 1.5039530770246317
    orientation:
      x: 0.9995015587957897
      y: -0.028877565977428663
      z: 0.01146917005509685
      w: -0.005583751987049906
---
header:
  stamp:
    sec: 1688998746
    nanosec: 727486069
  frame_id: camera_link
markers:
- id: 10
  pose:
    position:
      x: 0.010821107883113678
      y: 0.13097009450065936
      z: 1.5039530770246317
    orientation:
      x: 0.9995015587957897
      y: -0.028877565977428663
      z: 0.01146917005509685
      w: -0.005583751987049906
---
header:
  stamp:
    sec: 1688998746
    nanosec: 785299703
  frame_id: camera_link
markers:
- id: 10
  pose:
    position:
      x: 0.010840730402412764
      y: 0.13035297534446785
      z: 1.5011777582947392
    orientation:
      x: 0.9994049439663555
      y: -0.029667585846713047
      z: 0.017435161630342953
      w: 0.002368008563608462
---
header:
  stamp:
    sec: 1688998746
    nanosec: 827541659
  frame_id: camera_link
markers:
- id: 10
  pose:
    position:
      x: 0.010840730402412764
      y: 0.13035297534446785
      z: 1.5011777582947392
    orientation:
      x: 0.9994049439663555
      y: -0.029667585846713047
      z: 0.017435161630342953
      w: 0.002368008563608462
---
header:
  stamp:
    sec: 1688998746
    nanosec: 886009336
  frame_id: camera_link
markers:
- id: 10
  pose:
    position:
      x: 0.010840730402412764
      y: 0.13035297534446785
      z: 1.5011777582947392
    orientation:
      x: 0.9994049439663555
      y: -0.029667585846713047
      z: 0.017435161630342953
      w: 0.002368008563608462
---
header:
  stamp:
    sec: 1688998746
    nanosec: 926918961
  frame_id: camera_link
markers:
- id: 10
  pose:
    position:
      x: 0.010840730402412764
      y: 0.13035297534446785
      z: 1.5011777582947392
    orientation:
      x: 0.9994049439663555
      y: -0.029667585846713047
      z: 0.017435161630342953
      w: 0.002368008563608462
---
header:
  stamp:
    sec: 1688998746
    nanosec: 990881683
  frame_id: camera_link
markers:
- id: 10
  pose:
    position:
      x: 0.010840730402412764
      y: 0.13035297534446785
      z: 1.5011777582947392
    orientation:
      x: 0.9994049439663555
      y: -0.029667585846713047
      z: 0.017435161630342953
      w: 0.002368008563608462
---
header:
  stamp:
    sec: 1688998747
    nanosec: 91220018
  frame_id: camera_link
markers:
- id: 10
  pose:
    position:
      x: 0.010840730402412764
      y: 0.13035297534446785
      z: 1.5011777582947392
    orientation:
      x: 0.9994049439663555
      y: -0.029667585846713047
      z: 0.017435161630342953
      w: 0.002368008563608462
---
header:
  stamp:
    sec: 1688998747
    nanosec: 144963094
  frame_id: camera_link
markers:
- id: 10
  pose:
    position:
      x: 0.010840730402412764
      y: 0.13035297534446785
      z: 1.5011777582947392
    orientation:
      x: 0.9994049439663555
      y: -0.029667585846713047
      z: 0.017435161630342953
      w: 0.002368008563608462
---
header:
  stamp:
    sec: 1688998747
    nanosec: 204923302
  frame_id: camera_link
markers:
- id: 10
  pose:
    position:
      x: 0.010840730402412764
      y: 0.13035297534446785
      z: 1.5011777582947392
    orientation:
      x: 0.9994049439663555
      y: -0.029667585846713047
      z: 0.017435161630342953
      w: 0.002368008563608462
---
header:
  stamp:
    sec: 1688998747
    nanosec: 265382171
  frame_id: camera_link
markers:
- id: 10
  pose:
    position:
      x: 0.010840730402412764
      y: 0.13035297534446785
      z: 1.5011777582947392
    orientation:
      x: 0.9994049439663555
      y: -0.029667585846713047
      z: 0.017435161630342953
      w: 0.002368008563608462
---
header:
  stamp:
    sec: 1688998747
    nanosec: 323829658
  frame_id: camera_link
markers:
- id: 10
  pose:
    position:
      x: 0.010840730402412764
      y: 0.13035297534446785
      z: 1.5011777582947392
    orientation:
      x: 0.9994049439663555
      y: -0.029667585846713047
      z: 0.017435161630342953
      w: 0.002368008563608462
---
header:
  stamp:
    sec: 1688998747
    nanosec: 394081412
  frame_id: camera_link
markers:
- id: 10
  pose:
    position:
      x: 0.010840730402412764
      y: 0.13035297534446785
      z: 1.5011777582947392
    orientation:
      x: 0.9994049439663555
      y: -0.029667585846713047
      z: 0.017435161630342953
      w: 0.002368008563608462
---
header:
  stamp:
    sec: 1688998747
    nanosec: 461217701
  frame_id: camera_link
markers:
- id: 10
  pose:
    position:
      x: 0.010840730402412764
      y: 0.13035297534446785
      z: 1.5011777582947392
    orientation:
      x: 0.9994049439663555
      y: -0.029667585846713047
      z: 0.017435161630342953
      w: 0.002368008563608462
---
header:
  stamp:
    sec: 1688998747
    nanosec: 504078429
  frame_id: camera_link
markers:
- id: 10
  pose:
    position:
      x: 0.010840730402412764
      y: 0.13035297534446785
      z: 1.5011777582947392
    orientation:
      x: 0.9994049439663555
      y: -0.029667585846713047
      z: 0.017435161630342953
      w: 0.002368008563608462
- id: 441
  pose:
    position:
      x: 0.7102470108967928
      y: 0.8804317049905739
      z: 4.353255067258015
    orientation:
      x: 0.6926337349063468
      y: -0.5730810627735369
      z: 0.37741374404091615
      w: -0.2222509180387238
---
header:
  stamp:
    sec: 1688998747
    nanosec: 566991413
  frame_id: camera_link
markers:
- id: 10
  pose:
    position:
      x: 0.010840730402412764
      y: 0.13035297534446785
      z: 1.5011777582947392
    orientation:
      x: 0.9994049439663555
      y: -0.029667585846713047
      z: 0.017435161630342953
      w: 0.002368008563608462
- id: 441
  pose:
    position:
      x: 0.7191871992449382
      y: 0.890560804925616
      z: 4.408271474790448
    orientation:
      x: 0.6962193545293531
      y: -0.5703668477666223
      z: 0.37943706072412053
      w: -0.21444763066198144
---
header:
  stamp:
    sec: 1688998747
    nanosec: 602942025
  frame_id: camera_link
markers:
- id: 10
  pose:
    position:
      x: 0.010840730402412764
      y: 0.13035297534446785
      z: 1.5011777582947392
    orientation:
      x: 0.9994049439663555
      y: -0.029667585846713047
      z: 0.017435161630342953
      w: 0.002368008563608462
- id: 441
  pose:
    position:
      x: 0.7303902103040595
      y: 0.9054260520777614
      z: 4.476857789302968
    orientation:
      x: 0.695205821800499
      y: -0.5753126310986526
      z: 0.3729643933053242
      w: -0.21587450789620807
---
header:
  stamp:
    sec: 1688998747
    nanosec: 665538555
  frame_id: camera_link
markers:
- id: 10
  pose:
    position:
      x: 0.010840730402412764
      y: 0.13035297534446785
      z: 1.5011777582947392
    orientation:
      x: 0.9994049439663555
      y: -0.029667585846713047
      z: 0.017435161630342953
      w: 0.002368008563608462
---
header:
  stamp:
    sec: 1688998747
    nanosec: 722028877
  frame_id: camera_link
markers:
- id: 10
  pose:
    position:
      x: 0.010840730402412764
      y: 0.13035297534446785
      z: 1.5011777582947392
    orientation:
      x: 0.9994049439663555
      y: -0.029667585846713047
      z: 0.017435161630342953
      w: 0.002368008563608462
---
header:
  stamp:
    sec: 1688998747
    nanosec: 785389053
  frame_id: camera_link
markers:
- id: 10
  pose:
    position:
      x: 0.010840730402412764
      y: 0.13035297534446785
      z: 1.5011777582947392
    orientation:
      x: 0.9994049439663555
      y: -0.029667585846713047
      z: 0.017435161630342953
      w: 0.002368008563608462
---
header:
  stamp:
    sec: 1688998747
    nanosec: 828658665
  frame_id: camera_link
markers:
- id: 10
  pose:
    position:
      x: 0.01040908652565541
      y: 0.13065726411533882
      z: 1.5074304240353704
    orientation:
      x: 0.9987677820018351
      y: -0.03169240201999796
      z: -0.0039005360519509045
      w: 0.0379907239710568
---
header:
  stamp:
    sec: 1688998747
    nanosec: 890139319
  frame_id: camera_link
markers:
- id: 10
  pose:
    position:
      x: 0.01040908652565541
      y: 0.13065726411533882
      z: 1.5074304240353704
    orientation:
      x: 0.9987677820018351
      y: -0.03169240201999796
      z: -0.0039005360519509045
      w: 0.0379907239710568
---
header:
  stamp:
    sec: 1688998747
    nanosec: 955038821
  frame_id: camera_link
markers:
- id: 10
  pose:
    position:
      x: 0.01040908652565541
      y: 0.13065726411533882
      z: 1.5074304240353704
    orientation:
      x: 0.9987677820018351
      y: -0.03169240201999796
      z: -0.0039005360519509045
      w: 0.0379907239710568
---
header:
  stamp:
    sec: 1688998748
    nanosec: 28378436
  frame_id: camera_link
markers:
- id: 10
  pose:
    position:
      x: 0.01040908652565541
      y: 0.13065726411533882
      z: 1.5074304240353704
    orientation:
      x: 0.9987677820018351
      y: -0.03169240201999796
      z: -0.0039005360519509045
      w: 0.0379907239710568
---
header:
  stamp:
    sec: 1688998748
    nanosec: 126057974
  frame_id: camera_link
markers:
- id: 10
  pose:
    position:
      x: 0.010840730402412764
      y: 0.13035297534446785
      z: 1.5011777582947392
    orientation:
      x: 0.9994049439663555
      y: -0.029667585846713047
      z: 0.017435161630342953
      w: 0.002368008563608462
---
header:
  stamp:
    sec: 1688998748
    nanosec: 181453014
  frame_id: camera_link
markers:
- id: 10
  pose:
    position:
      x: 0.010840730402412764
      y: 0.13035297534446785
      z: 1.5011777582947392
    orientation:
      x: 0.9994049439663555
      y: -0.029667585846713047
      z: 0.017435161630342953
      w: 0.002368008563608462
---
header:
  stamp:
    sec: 1688998748
    nanosec: 222627995
  frame_id: camera_link
markers:
- id: 10
  pose:
    position:
      x: 0.010840730402412764
      y: 0.13035297534446785
      z: 1.5011777582947392
    orientation:
      x: 0.9994049439663555
      y: -0.029667585846713047
      z: 0.017435161630342953
      w: 0.002368008563608462
---
header:
  stamp:
    sec: 1688998748
    nanosec: 266356045
  frame_id: camera_link
markers:
- id: 10
  pose:
    position:
      x: 0.010840730402412764
      y: 0.13035297534446785
      z: 1.5011777582947392
    orientation:
      x: 0.9994049439663555
      y: -0.029667585846713047
      z: 0.017435161630342953
      w: 0.002368008563608462
---
header:
  stamp:
    sec: 1688998748
    nanosec: 310657637
  frame_id: camera_link
markers:
- id: 10
  pose:
    position:
      x: 0.010840730402412764
      y: 0.13035297534446785
      z: 1.5011777582947392
    orientation:
      x: 0.9994049439663555
      y: -0.029667585846713047
      z: 0.017435161630342953
      w: 0.002368008563608462
---
header:
  stamp:
    sec: 1688998748
    nanosec: 367180988
  frame_id: camera_link
markers:
- id: 10
  pose:
    position:
      x: 0.010840730402412764
      y: 0.13035297534446785
      z: 1.5011777582947392
    orientation:
      x: 0.9994049439663555
      y: -0.029667585846713047
      z: 0.017435161630342953
      w: 0.002368008563608462
---
header:
  stamp:
    sec: 1688998748
    nanosec: 421182440
  frame_id: camera_link
markers:
- id: 10
  pose:
    position:
      x: 0.010840730402412764
      y: 0.13035297534446785
      z: 1.5011777582947392
    orientation:
      x: 0.9994049439663555
      y: -0.029667585846713047
      z: 0.017435161630342953
      w: 0.002368008563608462
---
header:
  stamp:
    sec: 1688998748
    nanosec: 488026783
  frame_id: camera_link
markers:
- id: 10
  pose:
    position:
      x: 0.01040908652565541
      y: 0.13065726411533882
      z: 1.5074304240353704
    orientation:
      x: 0.9987677820018351
      y: -0.03169240201999796
      z: -0.0039005360519509045
      w: 0.0379907239710568
---
header:
  stamp:
    sec: 1688998748
    nanosec: 533926307
  frame_id: camera_link
markers:
- id: 10
  pose:
    position:
      x: 0.01040908652565541
      y: 0.13065726411533882
      z: 1.5074304240353704
    orientation:
      x: 0.9987677820018351
      y: -0.03169240201999796
      z: -0.0039005360519509045
      w: 0.0379907239710568
---
header:
  stamp:
    sec: 1688998748
    nanosec: 582272485
  frame_id: camera_link
markers:
- id: 10
  pose:
    position:
      x: 0.01040908652565541
      y: 0.13065726411533882
      z: 1.5074304240353704
    orientation:
      x: 0.9987677820018351
      y: -0.03169240201999796
      z: -0.0039005360519509045
      w: 0.0379907239710568
---
header:
  stamp:
    sec: 1688998748
    nanosec: 621578444
  frame_id: camera_link
markers:
- id: 10
  pose:
    position:
      x: 0.01040908652565541
      y: 0.13065726411533882
      z: 1.5074304240353704
    orientation:
      x: 0.9987677820018351
      y: -0.03169240201999796
      z: -0.0039005360519509045
      w: 0.0379907239710568
---
header:
  stamp:
    sec: 1688998748
    nanosec: 688875774
  frame_id: camera_link
markers:
- id: 10
  pose:
    position:
      x: 0.01040908652565541
      y: 0.13065726411533882
      z: 1.5074304240353704
    orientation:
      x: 0.9987677820018351
      y: -0.03169240201999796
      z: -0.0039005360519509045
      w: 0.0379907239710568
---
header:
  stamp:
    sec: 1688998748
    nanosec: 759044356
  frame_id: camera_link
markers:
- id: 10
  pose:
    position:
      x: 0.01040908652565541
      y: 0.13065726411533882
      z: 1.5074304240353704
    orientation:
      x: 0.9987677820018351
      y: -0.03169240201999796
      z: -0.0039005360519509045
      w: 0.0379907239710568
---
header:
  stamp:
    sec: 1688998748
    nanosec: 797580250
  frame_id: camera_link
markers:
- id: 10
  pose:
    position:
      x: 0.010840730402412764
      y: 0.13035297534446785
      z: 1.5011777582947392
    orientation:
      x: 0.9994049439663555
      y: -0.029667585846713047
      z: 0.017435161630342953
      w: 0.002368008563608462
---
header:
  stamp:
    sec: 1688998748
    nanosec: 848838888
  frame_id: camera_link
markers:
- id: 10
  pose:
    position:
      x: 0.010840730402412764
      y: 0.13035297534446785
      z: 1.5011777582947392
    orientation:
      x: 0.9994049439663555
      y: -0.029667585846713047
      z: 0.017435161630342953
      w: 0.002368008563608462
---
header:
  stamp:
    sec: 1688998748
    nanosec: 893789522
  frame_id: camera_link
markers:
- id: 10
  pose:
    position:
      x: 0.010840730402412764
      y: 0.13035297534446785
      z: 1.5011777582947392
    orientation:
      x: 0.9994049439663555
      y: -0.029667585846713047
      z: 0.017435161630342953
      w: 0.002368008563608462
---
header:
  stamp:
    sec: 1688998748
    nanosec: 995493893
  frame_id: camera_link
markers:
- id: 10
  pose:
    position:
      x: 0.010840730402412764
      y: 0.13035297534446785
      z: 1.5011777582947392
    orientation:
      x: 0.9994049439663555
      y: -0.029667585846713047
      z: 0.017435161630342953
      w: 0.002368008563608462
---
header:
  stamp:
    sec: 1688998749
    nanosec: 98659764
  frame_id: camera_link
markers:
- id: 10
  pose:
    position:
      x: 0.010840730402412764
      y: 0.13035297534446785
      z: 1.5011777582947392
    orientation:
      x: 0.9994049439663555
      y: -0.029667585846713047
      z: 0.017435161630342953
      w: 0.002368008563608462
---
header:
  stamp:
    sec: 1688998749
    nanosec: 148174001
  frame_id: camera_link
markers:
- id: 10
  pose:
    position:
      x: 0.010840730402412764
      y: 0.13035297534446785
      z: 1.5011777582947392
    orientation:
      x: 0.9994049439663555
      y: -0.029667585846713047
      z: 0.017435161630342953
      w: 0.002368008563608462
---
header:
  stamp:
    sec: 1688998749
    nanosec: 188989312
  frame_id: camera_link
markers:
- id: 10
  pose:
    position:
      x: 0.010840730402412764
      y: 0.13035297534446785
      z: 1.5011777582947392
    orientation:
      x: 0.9994049439663555
      y: -0.029667585846713047
      z: 0.017435161630342953
      w: 0.002368008563608462
---
header:
  stamp:
    sec: 1688998749
    nanosec: 225866868
  frame_id: camera_link
markers:
- id: 10
  pose:
    position:
      x: 0.010840730402412764
      y: 0.13035297534446785
      z: 1.5011777582947392
    orientation:
      x: 0.9994049439663555
      y: -0.029667585846713047
      z: 0.017435161630342953
      w: 0.002368008563608462
---
header:
  stamp:
    sec: 1688998749
    nanosec: 273677980
  frame_id: camera_link
markers:
- id: 10
  pose:
    position:
      x: 0.010840730402412764
      y: 0.13035297534446785
      z: 1.5011777582947392
    orientation:
      x: 0.9994049439663555
      y: -0.029667585846713047
      z: 0.017435161630342953
      w: 0.002368008563608462
---
header:
  stamp:
    sec: 1688998749
    nanosec: 320058165
  frame_id: camera_link
markers:
- id: 10
  pose:
    position:
      x: 0.010840730402412764
      y: 0.13035297534446785
      z: 1.5011777582947392
    orientation:
      x: 0.9994049439663555
      y: -0.029667585846713047
      z: 0.017435161630342953
      w: 0.002368008563608462
---
header:
  stamp:
    sec: 1688998749
    nanosec: 393497984
  frame_id: camera_link
markers:
- id: 10
  pose:
    position:
      x: 0.01040908652565541
      y: 0.13065726411533882
      z: 1.5074304240353704
    orientation:
      x: 0.9987677820018351
      y: -0.03169240201999796
      z: -0.0039005360519509045
      w: 0.0379907239710568
---
header:
  stamp:
    sec: 1688998749
    nanosec: 449805173
  frame_id: camera_link
markers:
- id: 10
  pose:
    position:
      x: 0.01040908652565541
      y: 0.13065726411533882
      z: 1.5074304240353704
    orientation:
      x: 0.9987677820018351
      y: -0.03169240201999796
      z: -0.0039005360519509045
      w: 0.0379907239710568
---
header:
  stamp:
    sec: 1688998749
    nanosec: 491443901
  frame_id: camera_link
markers:
- id: 10
  pose:
    position:
      x: 0.01040908652565541
      y: 0.13065726411533882
      z: 1.5074304240353704
    orientation:
      x: 0.9987677820018351
      y: -0.03169240201999796
      z: -0.0039005360519509045
      w: 0.0379907239710568
---
header:
  stamp:
    sec: 1688998749
    nanosec: 546341069
  frame_id: camera_link
markers:
- id: 10
  pose:
    position:
      x: 0.01040908652565541
      y: 0.13065726411533882
      z: 1.5074304240353704
    orientation:
      x: 0.9987677820018351
      y: -0.03169240201999796
      z: -0.0039005360519509045
      w: 0.0379907239710568
---
header:
  stamp:
    sec: 1688998749
    nanosec: 594979326
  frame_id: camera_link
markers:
- id: 10
  pose:
    position:
      x: 0.01040908652565541
      y: 0.13065726411533882
      z: 1.5074304240353704
    orientation:
      x: 0.9987677820018351
      y: -0.03169240201999796
      z: -0.0039005360519509045
      w: 0.0379907239710568
---
header:
  stamp:
    sec: 1688998749
    nanosec: 672739847
  frame_id: camera_link
markers:
- id: 10
  pose:
    position:
      x: 0.01040908652565541
      y: 0.13065726411533882
      z: 1.5074304240353704
    orientation:
      x: 0.9987677820018351
      y: -0.03169240201999796
      z: -0.0039005360519509045
      w: 0.0379907239710568
---
header:
  stamp:
    sec: 1688998749
    nanosec: 711330308
  frame_id: camera_link
markers:
- id: 10
  pose:
    position:
      x: 0.01040908652565541
      y: 0.13065726411533882
      z: 1.5074304240353704
    orientation:
      x: 0.9987677820018351
      y: -0.03169240201999796
      z: -0.0039005360519509045
      w: 0.0379907239710568
---
header:
  stamp:
    sec: 1688998749
    nanosec: 759596935
  frame_id: camera_link
markers:
- id: 10
  pose:
    position:
      x: 0.01040908652565541
      y: 0.13065726411533882
      z: 1.5074304240353704
    orientation:
      x: 0.9987677820018351
      y: -0.03169240201999796
      z: -0.0039005360519509045
      w: 0.0379907239710568
---
header:
  stamp:
    sec: 1688998749
    nanosec: 821635867
  frame_id: camera_link
markers:
- id: 10
  pose:
    position:
      x: 0.010840730402412764
      y: 0.13035297534446785
      z: 1.5011777582947392
    orientation:
      x: 0.9994049439663555
      y: -0.029667585846713047
      z: 0.017435161630342953
      w: 0.002368008563608462
---
header:
  stamp:
    sec: 1688998749
    nanosec: 862298317
  frame_id: camera_link
markers:
- id: 10
  pose:
    position:
      x: 0.010840730402412764
      y: 0.13035297534446785
      z: 1.5011777582947392
    orientation:
      x: 0.9994049439663555
      y: -0.029667585846713047
      z: 0.017435161630342953
      w: 0.002368008563608462
---
header:
  stamp:
    sec: 1688998749
    nanosec: 908348057
  frame_id: camera_link
markers:
- id: 10
  pose:
    position:
      x: 0.010840730402412764
      y: 0.13035297534446785
      z: 1.5011777582947392
    orientation:
      x: 0.9994049439663555
      y: -0.029667585846713047
      z: 0.017435161630342953
      w: 0.002368008563608462
---
header:
  stamp:
    sec: 1688998749
    nanosec: 996734784
  frame_id: camera_link
markers:
- id: 10
  pose:
    position:
      x: 0.010840730402412764
      y: 0.13035297534446785
      z: 1.5011777582947392
    orientation:
      x: 0.9994049439663555
      y: -0.029667585846713047
      z: 0.017435161630342953
      w: 0.002368008563608462
---
header:
  stamp:
    sec: 1688998750
    nanosec: 109209670
  frame_id: camera_link
markers:
- id: 10
  pose:
    position:
      x: 0.010840730402412764
      y: 0.13035297534446785
      z: 1.5011777582947392
    orientation:
      x: 0.9994049439663555
      y: -0.029667585846713047
      z: 0.017435161630342953
      w: 0.002368008563608462
---
header:
  stamp:
    sec: 1688998750
    nanosec: 163219258
  frame_id: camera_link
markers:
- id: 10
  pose:
    position:
      x: 0.010840730402412764
      y: 0.13035297534446785
      z: 1.5011777582947392
    orientation:
      x: 0.9994049439663555
      y: -0.029667585846713047
      z: 0.017435161630342953
      w: 0.002368008563608462
---
header:
  stamp:
    sec: 1688998750
    nanosec: 221732264
  frame_id: camera_link
markers:
- id: 10
  pose:
    position:
      x: 0.010840730402412764
      y: 0.13035297534446785
      z: 1.5011777582947392
    orientation:
      x: 0.9994049439663555
      y: -0.029667585846713047
      z: 0.017435161630342953
      w: 0.002368008563608462
---
header:
  stamp:
    sec: 1688998750
    nanosec: 353117193
  frame_id: camera_link
markers:
- id: 10
  pose:
    position:
      x: 0.010840730402412764
      y: 0.13035297534446785
      z: 1.5011777582947392
    orientation:
      x: 0.9994049439663555
      y: -0.029667585846713047
      z: 0.017435161630342953
      w: 0.002368008563608462
---
header:
  stamp:
    sec: 1688998750
    nanosec: 415474988
  frame_id: camera_link
markers:
- id: 10
  pose:
    position:
      x: 0.010840730402412764
      y: 0.13035297534446785
      z: 1.5011777582947392
    orientation:
      x: 0.9994049439663555
      y: -0.029667585846713047
      z: 0.017435161630342953
      w: 0.002368008563608462
---
header:
  stamp:
    sec: 1688998750
    nanosec: 456938316
  frame_id: camera_link
markers:
- id: 10
  pose:
    position:
      x: 0.010840730402412764
      y: 0.13035297534446785
      z: 1.5011777582947392
    orientation:
      x: 0.9994049439663555
      y: -0.029667585846713047
      z: 0.017435161630342953
      w: 0.002368008563608462
---
header:
  stamp:
    sec: 1688998750
    nanosec: 524885286
  frame_id: camera_link
markers:
- id: 10
  pose:
    position:
      x: 0.010840730402412764
      y: 0.13035297534446785
      z: 1.5011777582947392
    orientation:
      x: 0.9994049439663555
      y: -0.029667585846713047
      z: 0.017435161630342953
      w: 0.002368008563608462
---
