header:
  stamp:
    sec: 1688998544
    nanosec: 738750684
  frame_id: camera_link
markers:
- id: 10
  pose:
    position:
      x: -0.00017583535866665117
      y: 0.10375134839256488
      z: 1.4986148545929885
    orientation:
      x: 0.9930640449654059
      y: -0.02987401152310989
      z: 0.10633649343054226
      w: 0.04029759542900375
---
header:
  stamp:
    sec: 1688998544
    nanosec: 820077942
  frame_id: camera_link
markers:
- id: 10
  pose:
    position:
      x: -0.00017583535866665117
      y: 0.10375134839256488
      z: 1.4986148545929885
    orientation:
      x: 0.9930640449654059
      y: -0.02987401152310989
      z: 0.10633649343054226
      w: 0.04029759542900375
---
header:
  stamp:
    sec: 1688998544
    nanosec: 879664904
  frame_id: camera_link
markers:
- id: 10
  pose:
    position:
      x: -0.00047666338769888645
      y: 0.1035498019593595
      z: 1.4959860467967834
    orientation:
      x: 0.9880779770317125
      y: -0.03230028312765507
      z: 0.13568416001714778
      w: 0.06517984147904224
---
header:
  stamp:
    sec: 1688998544
    nanosec: 938906300
  frame_id: camera_link
markers:
- id: 10
  pose:
    position:
      x: -0.00047666338769888645
      y: 0.1035498019593595
      z: 1.4959860467967834
    orientation:
      x: 0.9880779770317125
      y: -0.03230028312765507
      z: 0.13568416001714778
      w: 0.06517984147904224
---
header:
  stamp:
    sec: 1688998545
    nanosec: 6619564
  frame_id: camera_link
markers:
- id: 10
  pose:
    position:
      x: -0.00047666338769888645
      y: 0.1035498019593595
      z: 1.4959860467967834
    orientation:
      x: 0.9880779770317125
      y: -0.03230028312765507
      z: 0.13568416001714778
      w: 0.06517984147904224
---
header:
  stamp:
    sec: 1688998545
    nanosec: 85943428
  frame_id: camera_link
markers:
- id: 10
  pose:
    position:
      x: -0.00047666338769888645
      y: 0.1035498019593595
      z: 1.4959860467967834
    orientation:
      x: 0.9880779770317125
      y: -0.03230028312765507
      z: 0.13568416001714778
      w: 0.06517984147904224
---
header:
  stamp:
    sec: 1688998545
    nanosec: 143578205
  frame_id: camera_link
markers:
- id: 10
  pose:
    position:
      x: -0.00047666338769888645
      y: 0.1035498019593595
      z: 1.4959860467967834
    orientation:
      x: 0.9880779770317125
      y: -0.03230028312765507
      z: 0.13568416001714778
      w: 0.06517984147904224
---
header:
  stamp:
    sec: 1688998545
    nanosec: 189970392
  frame_id: camera_link
markers:
- id: 10
  pose:
    position:
      x: -0.00047666338769888645
      y: 0.1035498019593595
      z: 1.4959860467967834
    orientation:
      x: 0.9880779770317125
      y: -0.03230028312765507
      z: 0.13568416001714778
      w: 0.06517984147904224
---
header:
  stamp:
    sec: 1688998545
    nanosec: 255453418
  frame_id: camera_link
markers:
- id: 10
  pose:
    position:
      x: -0.00019362363336271796
      y: 0.10490091059867114
      z: 1.5110325295669973
    orientation:
      x: 0.9921760726149957
      y: -0.02743948275370156
      z: 0.08710458381872738
      w: 0.08512641889718185
---
header:
  stamp:
    sec: 1688998545
    nanosec: 306239563
  frame_id: camera_link
markers:
- id: 10
  pose:
    position:
      x: -0.00019362363336271796
      y: 0.10490091059867114
      z: 1.5110325295669973
    orientation:
      x: 0.9921760726149957
      y: -0.02743948275370156
      z: 0.08710458381872738
      w: 0.08512641889718185
---
header:
  stamp:
    sec: 1688998545
    nanosec: 352504147
  frame_id: camera_link
markers:
- id: 10
  pose:
    position:
      x: -0.00019362363336271796
      y: 0.10490091059867114
      z: 1.5110325295669973
    orientation:
      x: 0.9921760726149957
      y: -0.02743948275370156
      z: 0.08710458381872738
      w: 0.08512641889718185
---
header:
  stamp:
    sec: 1688998545
    nanosec: 439842676
  frame_id: camera_link
markers:
- id: 10
  pose:
    position:
      x: -0.00019362363336271796
      y: 0.10490091059867114
      z: 1.5110325295669973
    orientation:
      x: 0.9921760726149957
      y: -0.02743948275370156
      z: 0.08710458381872738
      w: 0.08512641889718185
---
header:
  stamp:
    sec: 1688998545
    nanosec: 497482999
  frame_id: camera_link
markers:
- id: 10
  pose:
    position:
      x: -0.00019362363336271796
      y: 0.10490091059867114
      z: 1.5110325295669973
    orientation:
      x: 0.9921760726149957
      y: -0.02743948275370156
      z: 0.08710458381872738
      w: 0.08512641889718185
---
header:
  stamp:
    sec: 1688998545
    nanosec: 574360007
  frame_id: camera_link
markers:
- id: 10
  pose:
    position:
      x: -0.00019362363336271796
      y: 0.10490091059867114
      z: 1.5110325295669973
    orientation:
      x: 0.9921760726149957
      y: -0.02743948275370156
      z: 0.08710458381872738
      w: 0.08512641889718185
---
header:
  stamp:
    sec: 1688998545
    nanosec: 635701498
  frame_id: camera_link
markers:
- id: 10
  pose:
    position:
      x: -0.00019362363336271796
      y: 0.10490091059867114
      z: 1.5110325295669973
    orientation:
      x: 0.9921760726149957
      y: -0.02743948275370156
      z: 0.08710458381872738
      w: 0.08512641889718185
---
header:
  stamp:
    sec: 1688998545
    nanosec: 710546529
  frame_id: camera_link
markers:
- id: 10
  pose:
    position:
      x: -0.00019362363336271796
      y: 0.10490091059867114
      z: 1.5110325295669973
    orientation:
      x: 0.9921760726149957
      y: -0.02743948275370156
      z: 0.08710458381872738
      w: 0.08512641889718185
---
header:
  stamp:
    sec: 1688998545
    nanosec: 810615906
  frame_id: camera_link
markers:
- id: 10
  pose:
    position:
      x: -0.00019362363336271796
      y: 0.10490091059867114
      z: 1.5110325295669973
    orientation:
      x: 0.9921760726149957
      y: -0.02743948275370156
      z: 0.08710458381872738
      w: 0.08512641889718185
---
header:
  stamp:
    sec: 1688998545
    nanosec: 867772380
  frame_id: camera_link
markers:
- id: 10
  pose:
    position:
      x: -0.0003132931365535029
      y: 0.10502483921752964
      z: 1.512742411221921
    orientation:
      x: 0.9930186462127694
      y: -0.03975732046237263
      z: -0.07328223711939441
      w: 0.08344481689228977
---
header:
  stamp:
    sec: 1688998545
    nanosec: 947149294
  frame_id: camera_link
markers:
- id: 10
  pose:
    position:
      x: -0.0003132931365535029
      y: 0.10502483921752964
      z: 1.512742411221921
    orientation:
      x: 0.9930186462127694
      y: -0.03975732046237263
      z: -0.07328223711939441
      w: 0.08344481689228977
---
header:
  stamp:
    sec: 1688998546
    nanosec: 5254726
  frame_id: camera_link
markers:
- id: 10
  pose:
    position:
      x: -0.0003132931365535029
      y: 0.10502483921752964
      z: 1.512742411221921
    orientation:
      x: 0.9930186462127694
      y: -0.03975732046237263
      z: -0.07328223711939441
      w: 0.08344481689228977
---
header:
  stamp:
    sec: 1688998546
    nanosec: 72603394
  frame_id: camera_link
markers:
- id: 10
  pose:
    position:
      x: -0.0003132931365535029
      y: 0.10502483921752964
      z: 1.512742411221921
    orientation:
      x: 0.9930186462127694
      y: -0.03975732046237263
      z: -0.07328223711939441
      w: 0.08344481689228977
---
header:
  stamp:
    sec: 1688998546
    nanosec: 144653492
  frame_id: camera_link
markers:
- id: 10
  pose:
    position:
      x: -0.0003132931365535029
      y: 0.10502483921752964
      z: 1.512742411221921
    orientation:
      x: 0.9930186462127694
      y: -0.03975732046237263
      z: -0.07328223711939441
      w: 0.08344481689228977
---
header:
  stamp:
    sec: 1688998546
    nanosec: 202794556
  frame_id: camera_link
markers:
- id: 10
  pose:
    position:
      x: -0.000658225183659406
      y: 0.10544185100167473
      z: 1.5182972338545335
    orientation:
      x: 0.9930007989930665
      y: -0.044331041884172605
      z: -0.10080851437321785
      w: 0.04268272899499277
---
header:
  stamp:
    sec: 1688998546
    nanosec: 309225593
  frame_id: camera_link
markers:
- id: 10
  pose:
    position:
      x: -0.000658225183659406
      y: 0.10544185100167473
      z: 1.5182972338545335
    orientation:
      x: 0.9930007989930665
      y: -0.044331041884172605
      z: -0.10080851437321785
      w: 0.04268272899499277
---
header:
  stamp:
    sec: 1688998546
    nanosec: 363477654
  frame_id: camera_link
markers:
- id: 10
  pose:
    position:
      x: -0.000658225183659406
      y: 0.10544185100167473
      z: 1.5182972338545335
    orientation:
      x: 0.9930007989930665
      y: -0.044331041884172605
      z: -0.10080851437321785
      w: 0.04268272899499277
- id: 37
  pose:
    position:
      x: 0.17613601445455063
      y: 0.06508114100855564
      z: 0.1629154296983933
    orientation:
      x: 0.5663594277294577
      y: 0.41609161730278166
      z: -0.2252939567585699
      w: 0.6747943373209235
---
header:
  stamp:
    sec: 1688998546
    nanosec: 447931749
  frame_id: camera_link
markers:
- id: 10
  pose:
    position:
      x: -0.000658225183659406
      y: 0.10544185100167473
      z: 1.5182972338545335
    orientation:
      x: 0.9930007989930665
      y: -0.044331041884172605
      z: -0.10080851437321785
      w: 0.04268272899499277
- id: 37
  pose:
    position:
      x: 0.17613601445455063
      y: 0.06508114100855564
      z: 0.1629154296983933
    orientation:
      x: 0.5663594277294577
      y: 0.41609161730278166
      z: -0.2252939567585699
      w: 0.6747943373209235
---
header:
  stamp:
    sec: 1688998546
    nanosec: 507721390
  frame_id: camera_link
markers:
- id: 10
  pose:
    position:
      x: -0.00017583535866665117
      y: 0.10375134839256488
      z: 1.4986148545929885
    orientation:
      x: 0.9930640449654059
      y: -0.02987401152310989
      z: 0.10633649343054226
      w: 0.04029759542900375
---
header:
  stamp:
    sec: 1688998546
    nanosec: 604416985
  frame_id: camera_link
markers:
- id: 10
  pose:
    position:
      x: -0.00017583535866665117
      y: 0.10375134839256488
      z: 1.4986148545929885
    orientation:
      x: 0.9930640449654059
      y: -0.02987401152310989
      z: 0.10633649343054226
      w: 0.04029759542900375
---
header:
  stamp:
    sec: 1688998546
    nanosec: 652014357
  frame_id: camera_link
markers:
- id: 10
  pose:
    position:
      x: -0.00017583535866665117
      y: 0.10375134839256488
      z: 1.4986148545929885
    orientation:
      x: 0.9930640449654059
      y: -0.02987401152310989
      z: 0.10633649343054226
      w: 0.04029759542900375
---
header:
  stamp:
    sec: 1688998546
    nanosec: 719638109
  frame_id: camera_link
markers:
- id: 10
  pose:
    position:
      x: -0.00017583535866665117
      y: 0.10375134839256488
      z: 1.4986148545929885
    orientation:
      x: 0.9930640449654059
      y: -0.02987401152310989
      z: 0.10633649343054226
      w: 0.04029759542900375
---
header:
  stamp:
    sec: 1688998546
    nanosec: 876387894
  frame_id: camera_link
markers:
- id: 10
  pose:
    position:
      x: -0.00017583535866665117
      y: 0.10375134839256488
      z: 1.4986148545929885
    orientation:
      x: 0.9930640449654059
      y: -0.02987401152310989
      z: 0.10633649343054226
      w: 0.04029759542900375
---
header:
  stamp:
    sec: 1688998546
    nanosec: 927189241
  frame_id: camera_link
markers:
- id: 10
  pose:
    position:
      x: -0.0003132931365535029
      y: 0.10502483921752964
      z: 1.512742411221921
    orientation:
      x: 0.9930186462127694
      y: -0.03975732046237263
      z: -0.07328223711939441
      w: 0.08344481689228977
---
header:
  stamp:
    sec: 1688998546
    nanosec: 972794292
  frame_id: camera_link
markers:
- id: 10
  pose:
    position:
      x: -0.0003132931365535029
      y: 0.10502483921752964
      z: 1.512742411221921
    orientation:
      x: 0.9930186462127694
      y: -0.03975732046237263
      z: -0.07328223711939441
      w: 0.08344481689228977
---
header:
  stamp:
    sec: 1688998547
    nanosec: 51492929
  frame_id: camera_link
markers:
- id: 10
  pose:
    position:
      x: -0.0003132931365535029
      y: 0.10502483921752964
      z: 1.512742411221921
    orientation:
      x: 0.9930186462127694
      y: -0.03975732046237263
      z: -0.07328223711939441
      w: 0.08344481689228977
---
header:
  stamp:
    sec: 1688998547
    nanosec: 117947001
  frame_id: camera_link
markers:
- id: 10
  pose:
    position:
      x: -0.0003132931365535029
      y: 0.10502483921752964
      z: 1.512742411221921
    orientation:
      x: 0.9930186462127694
      y: -0.03975732046237263
      z: -0.07328223711939441
      w: 0.08344481689228977
---
header:
  stamp:
    sec: 1688998547
    nanosec: 180114193
  frame_id: camera_link
markers:
- id: 10
  pose:
    position:
      x: -0.0003132931365535029
      y: 0.10502483921752964
      z: 1.512742411221921
    orientation:
      x: 0.9930186462127694
      y: -0.03975732046237263
      z: -0.07328223711939441
      w: 0.08344481689228977
---
header:
  stamp:
    sec: 1688998547
    nanosec: 234640712
  frame_id: camera_link
markers:
- id: 10
  pose:
    position:
      x: -0.00017583535866665117
      y: 0.10375134839256488
      z: 1.4986148545929885
    orientation:
      x: 0.9930640449654059
      y: -0.02987401152310989
      z: 0.10633649343054226
      w: 0.04029759542900375
---
header:
  stamp:
    sec: 1688998547
    nanosec: 301105226
  frame_id: camera_link
markers:
- id: 10
  pose:
    position:
      x: -0.00017583535866665117
      y: 0.10375134839256488
      z: 1.4986148545929885
    orientation:
      x: 0.9930640449654059
      y: -0.02987401152310989
      z: 0.10633649343054226
      w: 0.04029759542900375
---
header:
  stamp:
    sec: 1688998547
    nanosec: 378474365
  frame_id: camera_link
markers:
- id: 10
  pose:
    position:
      x: -0.00017583535866665117
      y: 0.10375134839256488
      z: 1.4986148545929885
    orientation:
      x: 0.9930640449654059
      y: -0.02987401152310989
      z: 0.10633649343054226
      w: 0.04029759542900375
---
header:
  stamp:
    sec: 1688998547
    nanosec: 431227951
  frame_id: camera_link
markers:
- id: 10
  pose:
    position:
      x: -0.00017583535866665117
      y: 0.10375134839256488
      z: 1.4986148545929885
    orientation:
      x: 0.9930640449654059
      y: -0.02987401152310989
      z: 0.10633649343054226
      w: 0.04029759542900375
---
header:
  stamp:
    sec: 1688998547
    nanosec: 480039799
  frame_id: camera_link
markers:
- id: 10
  pose:
    position:
      x: -0.00017583535866665117
      y: 0.10375134839256488
      z: 1.4986148545929885
    orientation:
      x: 0.9930640449654059
      y: -0.02987401152310989
      z: 0.10633649343054226
      w: 0.04029759542900375
---
header:
  stamp:
    sec: 1688998547
    nanosec: 541048717
  frame_id: camera_link
markers:
- id: 10
  pose:
    position:
      x: -0.0003132931365535029
      y: 0.10502483921752964
      z: 1.512742411221921
    orientation:
      x: 0.9930186462127694
      y: -0.03975732046237263
      z: -0.07328223711939441
      w: 0.08344481689228977
---
header:
  stamp:
    sec: 1688998547
    nanosec: 611296534
  frame_id: camera_link
markers:
- id: 10
  pose:
    position:
      x: -0.0003132931365535029
      y: 0.10502483921752964
      z: 1.512742411221921
    orientation:
      x: 0.9930186462127694
      y: -0.03975732046237263
      z: -0.07328223711939441
      w: 0.08344481689228977
---
header:
  stamp:
    sec: 1688998547
    nanosec: 676902686
  frame_id: camera_link
markers:
- id: 10
  pose:
    position:
      x: -0.0003132931365535029
      y: 0.10502483921752964
      z: 1.512742411221921
    orientation:
      x: 0.9930186462127694
      y: -0.03975732046237263
      z: -0.07328223711939441
      w: 0.08344481689228977
---
header:
  stamp:
    sec: 1688998547
    nanosec: 770021596
  frame_id: camera_link
markers:
- id: 10
  pose:
    position:
      x: -0.0003132931365535029
      y: 0.10502483921752964
      z: 1.512742411221921
    orientation:
      x: 0.9930186462127694
      y: -0.03975732046237263
      z: -0.07328223711939441
      w: 0.08344481689228977
---
header:
  stamp:
    sec: 1688998547
    nanosec: 818353031
  frame_id: camera_link
markers:
- id: 10
  pose:
    position:
      x: -0.0003132931365535029
      y: 0.10502483921752964
      z: 1.512742411221921
    orientation:
      x: 0.9930186462127694
      y: -0.03975732046237263
      z: -0.07328223711939441
      w: 0.08344481689228977
---
header:
  stamp:
    sec: 1688998547
    nanosec: 872890302
  frame_id: camera_link
markers:
- id: 10
  pose:
    position:
      x: -0.0003132931365535029
      y: 0.10502483921752964
      z: 1.512742411221921
    orientation:
      x: 0.9930186462127694
      y: -0.03975732046237263
      z: -0.07328223711939441
      w: 0.08344481689228977
---
header:
  stamp:
    sec: 1688998547
    nanosec: 940610606
  frame_id: camera_link
markers:
- id: 10
  pose:
    position:
      x: -0.0003132931365535029
      y: 0.10502483921752964
      z: 1.512742411221921
    orientation:
      x: 0.9930186462127694
      y: -0.03975732046237263
      z: -0.07328223711939441
      w: 0.08344481689228977
---
header:
  stamp:
    sec: 1688998548
    nanosec: 3894621
  frame_id: camera_link
markers:
- id: 10
  pose:
    position:
      x: -0.0003132931365535029
      y: 0.10502483921752964
      z: 1.512742411221921
    orientation:
      x: 0.9930186462127694
      y: -0.03975732046237263
      z: -0.07328223711939441
      w: 0.08344481689228977
---
header:
  stamp:
    sec: 1688998548
    nanosec: 78137366
  frame_id: camera_link
markers:
- id: 10
  pose:
    position:
      x: -0.0003132931365535029
      y: 0.10502483921752964
      z: 1.512742411221921
    orientation:
      x: 0.9930186462127694
      y: -0.03975732046237263
      z: -0.07328223711939441
      w: 0.08344481689228977
---
header:
  stamp:
    sec: 1688998548
    nanosec: 136429298
  frame_id: camera_link
markers:
- id: 10
  pose:
    position:
      x: -0.0003132931365535029
      y: 0.10502483921752964
      z: 1.512742411221921
    orientation:
      x: 0.9930186462127694
      y: -0.03975732046237263
      z: -0.07328223711939441
      w: 0.08344481689228977
---
header:
  stamp:
    sec: 1688998548
    nanosec: 205959134
  frame_id: camera_link
markers:
- id: 10
  pose:
    position:
      x: -0.00017583535866665117
      y: 0.10375134839256488
      z: 1.4986148545929885
    orientation:
      x: 0.9930640449654059
      y: -0.02987401152310989
      z: 0.10633649343054226
      w: 0.04029759542900375
---
header:
  stamp:
    sec: 1688998548
    nanosec: 264669701
  frame_id: camera_link
markers:
- id: 10
  pose:
    position:
      x: -0.00017583535866665117
      y: 0.10375134839256488
      z: 1.4986148545929885
    orientation:
      x: 0.9930640449654059
      y: -0.02987401152310989
      z: 0.10633649343054226
      w: 0.04029759542900375
---
header:
  stamp:
    sec: 1688998548
    nanosec: 311279728
  frame_id: camera_link
markers:
- id: 10
  pose:
    position:
      x: -0.00017583535866665117
      y: 0.10375134839256488
      z: 1.4986148545929885
    orientation:
      x: 0.9930640449654059
      y: -0.02987401152310989
      z: 0.10633649343054226
      w: 0.04029759542900375
---
header:
  stamp:
    sec: 1688998548
    nanosec: 383651634
  frame_id: camera_link
markers:
- id: 10
  pose:
    position:
      x: -0.00017583535866665117
      y: 0.10375134839256488
      z: 1.4986148545929885
    orientation:
      x: 0.9930640449654059
      y: -0.02987401152310989
      z: 0.10633649343054226
      w: 0.04029759542900375
---
header:
  stamp:
    sec: 1688998548
    nanosec: 430616514
  frame_id: camera_link
markers:
- id: 10
  pose:
    position:
      x: -0.00017583535866665117
      y: 0.10375134839256488
      z: 1.4986148545929885
    orientation:
      x: 0.9930640449654059
      y: -0.02987401152310989
      z: 0.10633649343054226
      w: 0.04029759542900375
---
header:
  stamp:
    sec: 1688998548
    nanosec: 490962987
  frame_id: camera_link
markers:
- id: 10
  pose:
    position:
      x: -0.00017583535866665117
      y: 0.10375134839256488
      z: 1.4986148545929885
    orientation:
      x: 0.9930640449654059
      y: -0.02987401152310989
      z: 0.10633649343054226
      w: 0.04029759542900375
---
header:
  stamp:
    sec: 1688998548
    nanosec: 551282443
  frame_id: camera_link
markers:
- id: 106
  pose:
    position:
      x: -0.5297249984211978
      y: 0.1432975347557482
      z: 1.033665939550023
    orientation:
      x: -0.003022290779392243
      y: 0.6785181815844866
      z: -0.4140243823660815
      w: 0.60678476729736
- id: 10
  pose:
    position:
      x: -0.00017583535866665117
      y: 0.10375134839256488
      z: 1.4986148545929885
    orientation:
      x: 0.9930640449654059
      y: -0.02987401152310989
      z: 0.10633649343054226
      w: 0.04029759542900375
---
header:
  stamp:
    sec: 1688998548
    nanosec: 618508458
  frame_id: camera_link
markers:
- id: 106
  pose:
    position:
      x: -0.5297249984211978
      y: 0.1432975347557482
      z: 1.033665939550023
    orientation:
      x: -0.003022290779392243
      y: 0.6785181815844866
      z: -0.4140243823660815
      w: 0.60678476729736
- id: 10
  pose:
    position:
      x: -0.00017583535866665117
      y: 0.10375134839256488
      z: 1.4986148545929885
    orientation:
      x: 0.9930640449654059
      y: -0.02987401152310989
      z: 0.10633649343054226
      w: 0.04029759542900375
---
header:
  stamp:
    sec: 1688998548
    nanosec: 667113664
  frame_id: camera_link
markers:
- id: 10
  pose:
    position:
      x: -0.00017583535866665117
      y: 0.10375134839256488
      z: 1.4986148545929885
    orientation:
      x: 0.9930640449654059
      y: -0.02987401152310989
      z: 0.10633649343054226
      w: 0.04029759542900375
---
header:
  stamp:
    sec: 1688998548
    nanosec: 716350244
  frame_id: camera_link
markers:
- id: 10
  pose:
    position:
      x: -0.00017583535866665117
      y: 0.10375134839256488
      z: 1.4986148545929885
    orientation:
      x: 0.9930640449654059
      y: -0.02987401152310989
      z: 0.10633649343054226
      w: 0.04029759542900375
---
header:
  stamp:
    sec: 1688998548
    nanosec: 788967922
  frame_id: camera_link
markers:
- id: 10
  pose:
    position:
      x: -0.00017583535866665117
      y: 0.10375134839256488
      z: 1.4986148545929885
    orientation:
      x: 0.9930640449654059
      y: -0.02987401152310989
      z: 0.10633649343054226
      w: 0.04029759542900375
---
header:
  stamp:
    sec: 1688998548
    nanosec: 843938878
  frame_id: camera_link
markers:
- id: 10
  pose:
    position:
      x: -0.00019362363336271796
      y: 0.10490091059867114
      z: 1.5110325295669973
    orientation:
      x: 0.9921760726149957
      y: -0.02743948275370156
      z: 0.08710458381872738
      w: 0.08512641889718185
---
header:
  stamp:
    sec: 1688998548
    nanosec: 911446682
  frame_id: camera_link
markers:
- id: 10
  pose:
    position:
      x: -0.00019362363336271796
      y: 0.10490091059867114
      z: 1.5110325295669973
    orientation:
      x: 0.9921760726149957
      y: -0.02743948275370156
      z: 0.08710458381872738
      w: 0.08512641889718185
---
header:
  stamp:
    sec: 1688998548
    nanosec: 959946373
  frame_id: camera_link
markers:
- id: 10
  pose:
    position:
      x: -0.00019362363336271796
      y: 0.10490091059867114
      z: 1.5110325295669973
    orientation:
      x: 0.9921760726149957
      y: -0.02743948275370156
      z: 0.08710458381872738
      w: 0.08512641889718185
---
header:
  stamp:
    sec: 1688998549
    nanosec: 3252260
  frame_id: camera_link
markers:
- id: 10
  pose:
    position:
      x: -0.00019362363336271796
      y: 0.10490091059867114
      z: 1.5110325295669973
    orientation:
      x: 0.9921760726149957
      y: -0.02743948275370156
      z: 0.08710458381872738
      w: 0.08512641889718185
---
header:
  stamp:
    sec: 1688998549
    nanosec: 80362966
  frame_id: camera_link
markers:
- id: 10
  pose:
    position:
      x: -0.00019362363336271796
      y: 0.10490091059867114
      z: 1.5110325295669973
    orientation:
      x: 0.9921760726149957
      y: -0.02743948275370156
      z: 0.08710458381872738
      w: 0.08512641889718185
---
header:
  stamp:
    sec: 1688998549
    nanosec: 137651762
  frame_id: camera_link
markers:
- id: 10
  pose:
    position:
      x: -0.00019362363336271796
      y: 0.10490091059867114
      z: 1.5110325295669973
    orientation:
      x: 0.9921760726149957
      y: -0.02743948275370156
      z: 0.08710458381872738
      w: 0.08512641889718185
---
header:
  stamp:
    sec: 1688998549
    nanosec: 206685836
  frame_id: camera_link
markers:
- id: 10
  pose:
    position:
      x: -0.00017583535866665117
      y: 0.10375134839256488
      z: 1.4986148545929885
    orientation:
      x: 0.9930640449654059
      y: -0.02987401152310989
      z: 0.10633649343054226
      w: 0.04029759542900375
---
header:
  stamp:
    sec: 1688998549
    nanosec: 269435207
  frame_id: camera_link
markers:
- id: 10
  pose:
    position:
      x: -0.00017583535866665117
      y: 0.10375134839256488
      z: 1.4986148545929885
    orientation:
      x: 0.9930640449654059
      y: -0.02987401152310989
      z: 0.10633649343054226
      w: 0.04029759542900375
---
header:
  stamp:
    sec: 1688998549
    nanosec: 347164709
  frame_id: camera_link
markers:
- id: 10
  pose:
    position:
      x: -0.00017583535866665117
      y: 0.10375134839256488
      z: 1.4986148545929885
    orientation:
      x: 0.9930640449654059
      y: -0.02987401152310989
      z: 0.10633649343054226
      w: 0.04029759542900375
---
header:
  stamp:
    sec: 1688998549
    nanosec: 415391730
  frame_id: camera_link
markers:
- id: 10
  pose:
    position:
      x: -0.00017583535866665117
      y: 0.10375134839256488
      z: 1.4986148545929885
    orientation:
      x: 0.9930640449654059
      y: -0.02987401152310989
      z: 0.10633649343054226
      w: 0.04029759542900375
---
header:
  stamp:
    sec: 1688998549
    nanosec: 484546711
  frame_id: camera_link
markers:
- id: 10
  pose:
    position:
      x: -0.00017583535866665117
      y: 0.10375134839256488
      z: 1.4986148545929885
    orientation:
      x: 0.9930640449654059
      y: -0.02987401152310989
      z: 0.10633649343054226
      w: 0.04029759542900375
---
header:
  stamp:
    sec: 1688998549
    nanosec: 555044019
  frame_id: camera_link
markers:
- id: 10
  pose:
    position:
      x: -0.0003132931365535029
      y: 0.10502483921752964
      z: 1.512742411221921
    orientation:
      x: 0.9930186462127694
      y: -0.03975732046237263
      z: -0.07328223711939441
      w: 0.08344481689228977
---
header:
  stamp:
    sec: 1688998549
    nanosec: 613476223
  frame_id: camera_link
markers:
- id: 10
  pose:
    position:
      x: -0.0003132931365535029
      y: 0.10502483921752964
      z: 1.512742411221921
    orientation:
      x: 0.9930186462127694
      y: -0.03975732046237263
      z: -0.07328223711939441
      w: 0.08344481689228977
---
header:
  stamp:
    sec: 1688998549
    nanosec: 670499011
  frame_id: camera_link
markers:
- id: 10
  pose:
    position:
      x: -0.0003132931365535029
      y: 0.10502483921752964
      z: 1.512742411221921
    orientation:
      x: 0.9930186462127694
      y: -0.03975732046237263
      z: -0.07328223711939441
      w: 0.08344481689228977
---
header:
  stamp:
    sec: 1688998549
    nanosec: 744531363
  frame_id: camera_link
markers:
- id: 10
  pose:
    position:
      x: -0.0003132931365535029
      y: 0.10502483921752964
      z: 1.512742411221921
    orientation:
      x: 0.9930186462127694
      y: -0.03975732046237263
      z: -0.07328223711939441
      w: 0.08344481689228977
---
header:
  stamp:
    sec: 1688998549
    nanosec: 813013948
  frame_id: camera_link
markers:
- id: 10
  pose:
    position:
      x: -0.0003132931365535029
      y: 0.10502483921752964
      z: 1.512742411221921
    orientation:
      x: 0.9930186462127694
      y: -0.03975732046237263
      z: -0.07328223711939441
      w: 0.08344481689228977
---
header:
  stamp:
    sec: 1688998549
    nanosec: 869392668
  frame_id: camera_link
markers:
- id: 10
  pose:
    position:
      x: -0.000658225183659406
      y: 0.10544185100167473
      z: 1.5182972338545335
    orientation:
      x: 0.9930007989930665
      y: -0.044331041884172605
      z: -0.10080851437321785
      w: 0.04268272899499277
---
header:
  stamp:
    sec: 1688998549
    nanosec: 914220568
  frame_id: camera_link
markers:
- id: 10
  pose:
    position:
      x: -0.000658225183659406
      y: 0.10544185100167473
      z: 1.5182972338545335
    orientation:
      x: 0.9930007989930665
      y: -0.044331041884172605
      z: -0.10080851437321785
      w: 0.04268272899499277
---
header:
  stamp:
    sec: 1688998550
    nanosec: 12999261
  frame_id: camera_link
markers:
- id: 10
  pose:
    position:
      x: -0.000658225183659406
      y: 0.10544185100167473
      z: 1.5182972338545335
    orientation:
      x: 0.9930007989930665
      y: -0.044331041884172605
      z: -0.10080851437321785
      w: 0.04268272899499277
---
header:
  stamp:
    sec: 1688998550
    nanosec: 79659053
  frame_id: camera_link
markers:
- id: 10
  pose:
    position:
      x: -0.000658225183659406
      y: 0.10544185100167473
      z: 1.5182972338545335
    orientation:
      x: 0.9930007989930665
      y: -0.044331041884172605
      z: -0.10080851437321785
      w: 0.04268272899499277
---
header:
  stamp:
    sec: 1688998550
    nanosec: 152609630
  frame_id: camera_link
markers:
- id: 10
  pose:
    position:
      x: -0.000658225183659406
      y: 0.10544185100167473
      z: 1.5182972338545335
    orientation:
      x: 0.9930007989930665
      y: -0.044331041884172605
      z: -0.10080851437321785
      w: 0.04268272899499277
---
header:
  stamp:
    sec: 1688998550
    nanosec: 207221414
  frame_id: camera_link
markers:
- id: 10
  pose:
    position:
      x: -0.0002505209696884926
      y: 0.106472646329604
      z: 1.5291026860782388
    orientation:
      x: 0.9943011015124079
      y: -0.03362333283711449
      z: 0.01519503591752085
      w: 0.10001950761527655
---
header:
  stamp:
    sec: 1688998550
    nanosec: 274512155
  frame_id: camera_link
markers:
- id: 10
  pose:
    position:
      x: -0.0002505209696884926
      y: 0.106472646329604
      z: 1.5291026860782388
    orientation:
      x: 0.9943011015124079
      y: -0.03362333283711449
      z: 0.01519503591752085
      w: 0.10001950761527655
---
header:
  stamp:
    sec: 1688998550
    nanosec: 338676127
  frame_id: camera_link
markers:
- id: 10
  pose:
    position:
      x: -0.0002505209696884926
      y: 0.106472646329604
      z: 1.5291026860782388
    orientation:
      x: 0.9943011015124079
      y: -0.03362333283711449
      z: 0.01519503591752085
      w: 0.10001950761527655
---
header:
  stamp:
    sec: 1688998550
    nanosec: 399295358
  frame_id: camera_link
markers:
- id: 10
  pose:
    position:
      x: -0.0002505209696884926
      y: 0.106472646329604
      z: 1.5291026860782388
    orientation:
      x: 0.9943011015124079
      y: -0.03362333283711449
      z: 0.01519503591752085
      w: 0.10001950761527655
---
header:
  stamp:
    sec: 1688998550
    nanosec: 473883741
  frame_id: camera_link
markers:
- id: 10
  pose:
    position:
      x: -0.0002505209696884926
      y: 0.106472646329604
      z: 1.5291026860782388
    orientation:
      x: 0.9943011015124079
      y: -0.03362333283711449
      z: 0.01519503591752085
      w: 0.10001950761527655
---
header:
  stamp:
    sec: 1688998550
    nanosec: 552326520
  frame_id: camera_link
markers:
- id: 10
  pose:
    position:
      x: -0.0003132931365535029
      y: 0.10502483921752964
      z: 1.512742411221921
    orientation:
      x: 0.9930186462127694
      y: -0.03975732046237263
      z: -0.07328223711939441
      w: 0.08344481689228977
---
header:
  stamp:
    sec: 1688998550
    nanosec: 606569234
  frame_id: camera_link
markers:
- id: 10
  pose:
    position:
      x: -0.0003132931365535029
      y: 0.10502483921752964
      z: 1.512742411221921
    orientation:
      x: 0.9930186462127694
      y: -0.03975732046237263
      z: -0.07328223711939441
      w: 0.08344481689228977
---
header:
  stamp:
    sec: 1688998550
    nanosec: 675284953
  frame_id: camera_link
markers:
- id: 10
  pose:
    position:
      x: -0.0003132931365535029
      y: 0.10502483921752964
      z: 1.512742411221921
    orientation:
      x: 0.9930186462127694
      y: -0.03975732046237263
      z: -0.07328223711939441
      w: 0.08344481689228977
---
header:
  stamp:
    sec: 1688998550
    nanosec: 732563533
  frame_id: camera_link
markers:
- id: 10
  pose:
    position:
      x: -0.0003132931365535029
      y: 0.10502483921752964
      z: 1.512742411221921
    orientation:
      x: 0.9930186462127694
      y: -0.03975732046237263
      z: -0.07328223711939441
      w: 0.08344481689228977
---
header:
  stamp:
    sec: 1688998550
    nanosec: 805682636
  frame_id: camera_link
markers:
- id: 10
  pose:
    position:
      x: -0.0003132931365535029
      y: 0.10502483921752964
      z: 1.512742411221921
    orientation:
      x: 0.9930186462127694
      y: -0.03975732046237263
      z: -0.07328223711939441
      w: 0.08344481689228977
---
header:
  stamp:
    sec: 1688998550
    nanosec: 870264061
  frame_id: camera_link
markers:
- id: 10
  pose:
    position:
      x: -0.00017583535866665117
      y: 0.10375134839256488
      z: 1.4986148545929885
    orientation:
      x: 0.9930640449654059
      y: -0.02987401152310989
      z: 0.10633649343054226
      w: 0.04029759542900375
---
header:
  stamp:
    sec: 1688998550
    nanosec: 941121729
  frame_id: camera_link
markers:
- id: 10
  pose:
    position:
      x: -0.00019362363336271796
      y: 0.10490091059867114
      z: 1.5110325295669973
    orientation:
      x: 0.9921760726149957
      y: -0.02743948275370156
      z: 0.08710458381872738
      w: 0.08512641889718185
---
header:
  stamp:
    sec: 1688998551
    nanosec: 3163132
  frame_id: camera_link
markers:
- id: 10
  pose:
    position:
      x: -0.00019362363336271796
      y: 0.10490091059867114
      z: 1.5110325295669973
    orientation:
      x: 0.9921760726149957
      y: -0.02743948275370156
      z: 0.08710458381872738
      w: 0.08512641889718185
---
header:
  stamp:
    sec: 1688998551
    nanosec: 85748189
  frame_id: camera_link
markers:
- id: 10
  pose:
    position:
      x: -0.00019362363336271796
      y: 0.10490091059867114
      z: 1.5110325295669973
    orientation:
      x: 0.9921760726149957
      y: -0.02743948275370156
      z: 0.08710458381872738
      w: 0.08512641889718185
---
header:
  stamp:
    sec: 1688998551
    nanosec: 159477332
  frame_id: camera_link
markers:
- id: 10
  pose:
    position:
      x: -0.00019362363336271796
      y: 0.10490091059867114
      z: 1.5110325295669973
    orientation:
      x: 0.9921760726149957
      y: -0.02743948275370156
      z: 0.08710458381872738
      w: 0.08512641889718185
---
header:
  stamp:
    sec: 1688998551
    nanosec: 217885844
  frame_id: camera_link
markers:
- id: 10
  pose:
    position:
      x: -0.00019362363336271796
      y: 0.10490091059867114
      z: 1.5110325295669973
    orientation:
      x: 0.9921760726149957
      y: -0.02743948275370156
      z: 0.08710458381872738
      w: 0.08512641889718185
---
header:
  stamp:
    sec: 1688998551
    nanosec: 274695791
  frame_id: camera_link
markers:
- id: 10
  pose:
    position:
      x: -0.00019362363336271796
      y: 0.10490091059867114
      z: 1.5110325295669973
    orientation:
      x: 0.9921760726149957
      y: -0.02743948275370156
      z: 0.08710458381872738
      w: 0.08512641889718185
---
header:
  stamp:
    sec: 1688998551
    nanosec: 331250983
  frame_id: camera_link
markers:
- id: 10
  pose:
    position:
      x: -0.00019362363336271796
      y: 0.10490091059867114
      z: 1.5110325295669973
    orientation:
      x: 0.9921760726149957
      y: -0.02743948275370156
      z: 0.08710458381872738
      w: 0.08512641889718185
---
header:
  stamp:
    sec: 1688998551
    nanosec: 405386274
  frame_id: camera_link
markers:
- id: 10
  pose:
    position:
      x: -0.00019362363336271796
      y: 0.10490091059867114
      z: 1.5110325295669973
    orientation:
      x: 0.9921760726149957
      y: -0.02743948275370156
      z: 0.08710458381872738
      w: 0.08512641889718185
---
header:
  stamp:
    sec: 1688998551
    nanosec: 478410854
  frame_id: camera_link
markers:
- id: 10
  pose:
    position:
      x: -0.00019362363336271796
      y: 0.10490091059867114
      z: 1.5110325295669973
    orientation:
      x: 0.9921760726149957
      y: -0.02743948275370156
      z: 0.08710458381872738
      w: 0.08512641889718185
---
header:
  stamp:
    sec: 1688998551
    nanosec: 541009787
  frame_id: camera_link
markers:
- id: 10
  pose:
    position:
      x: -0.00019362363336271796
      y: 0.10490091059867114
      z: 1.5110325295669973
    orientation:
      x: 0.9921760726149957
      y: -0.02743948275370156
      z: 0.08710458381872738
      w: 0.08512641889718185
---
header:
  stamp:
    sec: 1688998551
    nanosec: 604938299
  frame_id: camera_link
markers:
- id: 10
  pose:
    position:
      x: -0.00019362363336271796
      y: 0.10490091059867114
      z: 1.5110325295669973
    orientation:
      x: 0.9921760726149957
      y: -0.02743948275370156
      z: 0.08710458381872738
      w: 0.08512641889718185
---
header:
  stamp:
    sec: 1688998551
    nanosec: 705487833
  frame_id: camera_link
markers:
- id: 10
  pose:
    position:
      x: -0.00019362363336271796
      y: 0.10490091059867114
      z: 1.5110325295669973
    orientation:
      x: 0.9921760726149957
      y: -0.02743948275370156
      z: 0.08710458381872738
      w: 0.08512641889718185
---
header:
  stamp:
    sec: 1688998551
    nanosec: 775169322
  frame_id: camera_link
markers:
- id: 10
  pose:
    position:
      x: -0.00019362363336271796
      y: 0.10490091059867114
      z: 1.5110325295669973
    orientation:
      x: 0.9921760726149957
      y: -0.02743948275370156
      z: 0.08710458381872738
      w: 0.08512641889718185
---
header:
  stamp:
    sec: 1688998551
    nanosec: 846415515
  frame_id: camera_link
markers:
- id: 10
  pose:
    position:
      x: -0.00017583535866665117
      y: 0.10375134839256488
      z: 1.4986148545929885
    orientation:
      x: 0.9930640449654059
      y: -0.02987401152310989
      z: 0.10633649343054226
      w: 0.04029759542900375
---
header:
  stamp:
    sec: 1688998551
    nanosec: 898476373
  frame_id: camera_link
markers:
- id: 10
  pose:
    position:
      x: -0.00017583535866665117
      y: 0.10375134839256488
      z: 1.4986148545929885
    orientation:
      x: 0.9930640449654059
      y: -0.02987401152310989
      z: 0.10633649343054226
      w: 0.04029759542900375
---
header:
  stamp:
    sec: 1688998551
    nanosec: 953048677
  frame_id: camera_link
markers:
- id: 10
  pose:
    position:
      x: -0.00017583535866665117
      y: 0.10375134839256488
      z: 1.4986148545929885
    orientation:
      x: 0.9930640449654059
      y: -0.02987401152310989
      z: 0.10633649343054226
      w: 0.04029759542900375
---
header:
  stamp:
    sec: 1688998552
    nanosec: 4177553
  frame_id: camera_link
markers:
- id: 10
  pose:
    position:
      x: -0.00017583535866665117
      y: 0.10375134839256488
      z: 1.4986148545929885
    orientation:
      x: 0.9930640449654059
      y: -0.02987401152310989
      z: 0.10633649343054226
      w: 0.04029759542900375
---
header:
  stamp:
    sec: 1688998552
    nanosec: 86248307
  frame_id: camera_link
markers:
- id: 10
  pose:
    position:
      x: -0.00017583535866665117
      y: 0.10375134839256488
      z: 1.4986148545929885
    orientation:
      x: 0.9930640449654059
      y: -0.02987401152310989
      z: 0.10633649343054226
      w: 0.04029759542900375
---
header:
  stamp:
    sec: 1688998552
    nanosec: 144384539
  frame_id: camera_link
markers:
- id: 10
  pose:
    position:
      x: -0.00017583535866665117
      y: 0.10375134839256488
      z: 1.4986148545929885
    orientation:
      x: 0.9930640449654059
      y: -0.02987401152310989
      z: 0.10633649343054226
      w: 0.04029759542900375
---
header:
  stamp:
    sec: 1688998552
    nanosec: 190266255
  frame_id: camera_link
markers:
- id: 10
  pose:
    position:
      x: -0.00017583535866665117
      y: 0.10375134839256488
      z: 1.4986148545929885
    orientation:
      x: 0.9930640449654059
      y: -0.02987401152310989
      z: 0.10633649343054226
      w: 0.04029759542900375
---
header:
  stamp:
    sec: 1688998552
    nanosec: 246755415
  frame_id: camera_link
markers:
- id: 10
  pose:
    position:
      x: -0.00017583535866665117
      y: 0.10375134839256488
      z: 1.4986148545929885
    orientation:
      x: 0.9930640449654059
      y: -0.02987401152310989
      z: 0.10633649343054226
      w: 0.04029759542900375
---
header:
  stamp:
    sec: 1688998552
    nanosec: 315081209
  frame_id: camera_link
markers:
- id: 10
  pose:
    position:
      x: -0.00017583535866665117
      y: 0.10375134839256488
      z: 1.4986148545929885
    orientation:
      x: 0.9930640449654059
      y: -0.02987401152310989
      z: 0.10633649343054226
      w: 0.04029759542900375
---
header:
  stamp:
    sec: 1688998552
    nanosec: 389438014
  frame_id: camera_link
markers:
- id: 10
  pose:
    position:
      x: -0.00017583535866665117
      y: 0.10375134839256488
      z: 1.4986148545929885
    orientation:
      x: 0.9930640449654059
      y: -0.02987401152310989
      z: 0.10633649343054226
      w: 0.04029759542900375
---
header:
  stamp:
    sec: 1688998552
    nanosec: 443317420
  frame_id: camera_link
markers:
- id: 10
  pose:
    position:
      x: -0.00017583535866665117
      y: 0.10375134839256488
      z: 1.4986148545929885
    orientation:
      x: 0.9930640449654059
      y: -0.02987401152310989
      z: 0.10633649343054226
      w: 0.04029759542900375
---
header:
  stamp:
    sec: 1688998552
    nanosec: 529694769
  frame_id: camera_link
markers:
- id: 10
  pose:
    position:
      x: -0.0003132931365535029
      y: 0.10502483921752964
      z: 1.512742411221921
    orientation:
      x: 0.9930186462127694
      y: -0.03975732046237263
      z: -0.07328223711939441
      w: 0.08344481689228977
---
header:
  stamp:
    sec: 1688998552
    nanosec: 580905355
  frame_id: camera_link
markers:
- id: 10
  pose:
    position:
      x: -0.0003132931365535029
      y: 0.10502483921752964
      z: 1.512742411221921
    orientation:
      x: 0.9930186462127694
      y: -0.03975732046237263
      z: -0.07328223711939441
      w: 0.08344481689228977
---
header:
  stamp:
    sec: 1688998552
    nanosec: 639338583
  frame_id: camera_link
markers:
- id: 17
  pose:
    position:
      x: -0.001540622165364395
      y: 0.10189491805969361
      z: 0.5727931472064287
    orientation:
      x: -0.5925846900547869
      y: 0.6503754208618154
      z: 0.30639286040713354
      w: 0.36328860722987594
- id: 10
  pose:
    position:
      x: -0.0003132931365535029
      y: 0.10502483921752964
      z: 1.512742411221921
    orientation:
      x: 0.9930186462127694
      y: -0.03975732046237263
      z: -0.07328223711939441
      w: 0.08344481689228977
---
header:
  stamp:
    sec: 1688998552
    nanosec: 705970970
  frame_id: camera_link
markers:
- id: 10
  pose:
    position:
      x: -0.0003132931365535029
      y: 0.10502483921752964
      z: 1.512742411221921
    orientation:
      x: 0.9930186462127694
      y: -0.03975732046237263
      z: -0.07328223711939441
      w: 0.08344481689228977
---
header:
  stamp:
    sec: 1688998552
    nanosec: 805126976
  frame_id: camera_link
markers:
- id: 10
  pose:
    position:
      x: -0.0003132931365535029
      y: 0.10502483921752964
      z: 1.512742411221921
    orientation:
      x: 0.9930186462127694
      y: -0.03975732046237263
      z: -0.07328223711939441
      w: 0.08344481689228977
---
header:
  stamp:
    sec: 1688998552
    nanosec: 868372466
  frame_id: camera_link
markers:
- id: 10
  pose:
    position:
      x: -0.0003132931365535029
      y: 0.10502483921752964
      z: 1.512742411221921
    orientation:
      x: 0.9930186462127694
      y: -0.03975732046237263
      z: -0.07328223711939441
      w: 0.08344481689228977
---
header:
  stamp:
    sec: 1688998552
    nanosec: 916619772
  frame_id: camera_link
markers:
- id: 10
  pose:
    position:
      x: -0.0003132931365535029
      y: 0.10502483921752964
      z: 1.512742411221921
    orientation:
      x: 0.9930186462127694
      y: -0.03975732046237263
      z: -0.07328223711939441
      w: 0.08344481689228977
---
header:
  stamp:
    sec: 1688998553
    nanosec: 6030549
  frame_id: camera_link
markers:
- id: 10
  pose:
    position:
      x: -0.0003132931365535029
      y: 0.10502483921752964
      z: 1.512742411221921
    orientation:
      x: 0.9930186462127694
      y: -0.03975732046237263
      z: -0.07328223711939441
      w: 0.08344481689228977
---
header:
  stamp:
    sec: 1688998553
    nanosec: 81265839
  frame_id: camera_link
markers:
- id: 10
  pose:
    position:
      x: -0.0003132931365535029
      y: 0.10502483921752964
      z: 1.512742411221921
    orientation:
      x: 0.9930186462127694
      y: -0.03975732046237263
      z: -0.07328223711939441
      w: 0.08344481689228977
---
header:
  stamp:
    sec: 1688998553
    nanosec: 143867191
  frame_id: camera_link
markers:
- id: 10
  pose:
    position:
      x: -0.0003132931365535029
      y: 0.10502483921752964
      z: 1.512742411221921
    orientation:
      x: 0.9930186462127694
      y: -0.03975732046237263
      z: -0.07328223711939441
      w: 0.08344481689228977
---
header:
  stamp:
    sec: 1688998553
    nanosec: 206743423
  frame_id: camera_link
markers:
- id: 10
  pose:
    position:
      x: -0.0003132931365535029
      y: 0.10502483921752964
      z: 1.512742411221921
    orientation:
      x: 0.9930186462127694
      y: -0.03975732046237263
      z: -0.07328223711939441
      w: 0.08344481689228977
---
header:
  stamp:
    sec: 1688998553
    nanosec: 270092801
  frame_id: camera_link
markers:
- id: 10
  pose:
    position:
      x: -0.000658225183659406
      y: 0.10544185100167473
      z: 1.5182972338545335
    orientation:
      x: 0.9930007989930665
      y: -0.044331041884172605
      z: -0.10080851437321785
      w: 0.04268272899499277
---
header:
  stamp:
    sec: 1688998553
    nanosec: 349389285
  frame_id: camera_link
markers:
- id: 10
  pose:
    position:
      x: -0.000658225183659406
      y: 0.10544185100167473
      z: 1.5182972338545335
    orientation:
      x: 0.9930007989930665
      y: -0.044331041884172605
      z: -0.10080851437321785
      w: 0.04268272899499277
---
header:
  stamp:
    sec: 1688998553
    nanosec: 411617328
  frame_id: camera_link
markers:
- id: 10
  pose:
    position:
      x: -0.000658225183659406
      y: 0.10544185100167473
      z: 1.5182972338545335
    orientation:
      x: 0.9930007989930665
      y: -0.044331041884172605
      z: -0.10080851437321785
      w: 0.04268272899499277
---
header:
  stamp:
    sec: 1688998553
    nanosec: 475051375
  frame_id: camera_link
markers:
- id: 10
  pose:
    position:
      x: -0.000658225183659406
      y: 0.10544185100167473
      z: 1.5182972338545335
    orientation:
      x: 0.9930007989930665
      y: -0.044331041884172605
      z: -0.10080851437321785
      w: 0.04268272899499277
---
header:
  stamp:
    sec: 1688998553
    nanosec: 538314868
  frame_id: camera_link
markers:
- id: 10
  pose:
    position:
      x: -0.00019362363336271796
      y: 0.10490091059867114
      z: 1.5110325295669973
    orientation:
      x: 0.9921760726149957
      y: -0.02743948275370156
      z: 0.08710458381872738
      w: 0.08512641889718185
---
header:
  stamp:
    sec: 1688998553
    nanosec: 617120860
  frame_id: camera_link
markers:
- id: 10
  pose:
    position:
      x: -0.00019362363336271796
      y: 0.10490091059867114
      z: 1.5110325295669973
    orientation:
      x: 0.9921760726149957
      y: -0.02743948275370156
      z: 0.08710458381872738
      w: 0.08512641889718185
---
header:
  stamp:
    sec: 1688998553
    nanosec: 679577723
  frame_id: camera_link
markers:
- id: 10
  pose:
    position:
      x: -0.00019362363336271796
      y: 0.10490091059867114
      z: 1.5110325295669973
    orientation:
      x: 0.9921760726149957
      y: -0.02743948275370156
      z: 0.08710458381872738
      w: 0.08512641889718185
---
header:
  stamp:
    sec: 1688998553
    nanosec: 753141932
  frame_id: camera_link
markers:
- id: 10
  pose:
    position:
      x: -0.00019362363336271796
      y: 0.10490091059867114
      z: 1.5110325295669973
    orientation:
      x: 0.9921760726149957
      y: -0.02743948275370156
      z: 0.08710458381872738
      w: 0.08512641889718185
- id: 896
  pose:
    position:
      x: 0.24014114943869597
      y: 0.14957418235207134
      z: 1.4198729086571622
    orientation:
      x: 0.6057064402350948
      y: 0.5008662147284096
      z: 0.400888274063281
      w: -0.4706817767026123
---
header:
  stamp:
    sec: 1688998553
    nanosec: 808789890
  frame_id: camera_link
markers:
- id: 10
  pose:
    position:
      x: -0.0002505209696884926
      y: 0.106472646329604
      z: 1.5291026860782388
    orientation:
      x: 0.9943011015124079
      y: -0.03362333283711449
      z: 0.01519503591752085
      w: 0.10001950761527655
- id: 896
  pose:
    position:
      x: 0.24014114943869597
      y: 0.14957418235207134
      z: 1.4198729086571622
    orientation:
      x: 0.6057064402350948
      y: 0.5008662147284096
      z: 0.400888274063281
      w: -0.4706817767026123
---
