header:
  stamp:
    sec: 1688998613
    nanosec: 371617803
  frame_id: camera_link
markers:
- id: 10
  pose:
    position:
      x: 0.016065764842042064
      y: 0.09021487028446766
      z: 1.5080391217051472
    orientation:
      x: 0.9965777642415139
      y: -0.016397978521109097
      z: -0.05373194995253572
      w: 0.060636158141039134
---
header:
  stamp:
    sec: 1688998613
    nanosec: 452659792
  frame_id: camera_link
markers:
- id: 10
  pose:
    position:
      x: 0.016065764842042064
      y: 0.09021487028446766
      z: 1.5080391217051472
    orientation:
      x: 0.9965777642415139
      y: -0.016397978521109097
      z: -0.05373194995253572
      w: 0.060636158141039134
---
header:
  stamp:
    sec: 1688998613
    nanosec: 503401104
  frame_id: camera_link
markers:
- id: 10
  pose:
    position:
      x: 0.016065764842042064
      y: 0.09021487028446766
      z: 1.5080391217051472
    orientation:
      x: 0.9965777642415139
      y: -0.016397978521109097
      z: -0.05373194995253572
      w: 0.060636158141039134
---
header:
  stamp:
    sec: 1688998613
    nanosec: 554055595
  frame_id: camera_link
markers:
- id: 10
  pose:
    position:
      x: 0.015733397951973958
      y: 0.09049297722845832
      z: 1.5115496243215236
    orientation:
      x: 0.9966676385342073
      y: -0.018735434924625524
      z: -0.06948191550097152
      w: 0.03840397368954974
---
header:
  stamp:
    sec: 1688998613
    nanosec: 610584052
  frame_id: camera_link
markers:
- id: 10
  pose:
    position:
      x: 0.015733397951973958
      y: 0.09049297722845832
      z: 1.5115496243215236
    orientation:
      x: 0.9966676385342073
      y: -0.018735434924625524
      z: -0.06948191550097152
      w: 0.03840397368954974
---
header:
  stamp:
    sec: 1688998613
    nanosec: 696105638
  frame_id: camera_link
markers:
- id: 10
  pose:
    position:
      x: 0.015733397951973958
      y: 0.09049297722845832
      z: 1.5115496243215236
    orientation:
      x: 0.9966676385342073
      y: -0.018735434924625524
      z: -0.06948191550097152
      w: 0.03840397368954974
---
header:
  stamp:
    sec: 1688998613
    nanosec: 746875769
  frame_id: camera_link
markers:
- id: 10
  pose:
    position:
      x: 0.015733397951973958
      y: 0.09049297722845832
      z: 1.5115496243215236
    orientation:
      x: 0.9966676385342073
      y: -0.018735434924625524
      z: -0.06948191550097152
      w: 0.03840397368954974
---
header:
  stamp:
    sec: 1688998613
    nanosec: 798394838
  frame_id: camera_link
markers:
- id: 10
  pose:
    position:
      x: 0.015733397951973958
      y: 0.09049297722845832
      z: 1.5115496243215236
    orientation:
      x: 0.9966676385342073
      y: -0.018735434924625524
      z: -0.06948191550097152
      w: 0.03840397368954974
---
header:
  stamp:
    sec: 1688998613
    nanosec: 879552981
  frame_id: camera_link
markers:
- id: 10
  pose:
    position:
      x: 0.01437201291290725
      y: 0.08808359997264871
      z: 1.4643968572770716
    orientation:
      x: 0.9936732449429334
      y: -0.02327958502347615
      z: -0.04671630631546367
      w: -0.09944410455102612
---
header:
  stamp:
    sec: 1688998613
    nanosec: 962827877
  frame_id: camera_link
markers:
- id: 10
  pose:
    position:
      x: 0.01437201291290725
      y: 0.08808359997264871
      z: 1.4643968572770716
    orientation:
      x: 0.9936732449429334
      y: -0.02327958502347615
      z: -0.04671630631546367
      w: -0.09944410455102612
---
header:
  stamp:
    sec: 1688998614
    nanosec: 35814350
  frame_id: camera_link
markers:
- id: 10
  pose:
    position:
      x: 0.01437201291290725
      y: 0.08808359997264871
      z: 1.4643968572770716
    orientation:
      x: 0.9936732449429334
      y: -0.02327958502347615
      z: -0.04671630631546367
      w: -0.09944410455102612
---
header:
  stamp:
    sec: 1688998614
    nanosec: 94799925
  frame_id: camera_link
markers:
- id: 10
  pose:
    position:
      x: 0.01437201291290725
      y: 0.08808359997264871
      z: 1.4643968572770716
    orientation:
      x: 0.9936732449429334
      y: -0.02327958502347615
      z: -0.04671630631546367
      w: -0.09944410455102612
---
header:
  stamp:
    sec: 1688998614
    nanosec: 191392820
  frame_id: camera_link
markers:
- id: 10
  pose:
    position:
      x: 0.016065764842042064
      y: 0.09021487028446766
      z: 1.5080391217051472
    orientation:
      x: 0.9965777642415139
      y: -0.016397978521109097
      z: -0.05373194995253572
      w: 0.060636158141039134
---
header:
  stamp:
    sec: 1688998614
    nanosec: 249629254
  frame_id: camera_link
markers:
- id: 10
  pose:
    position:
      x: 0.016065764842042064
      y: 0.09021487028446766
      z: 1.5080391217051472
    orientation:
      x: 0.9965777642415139
      y: -0.016397978521109097
      z: -0.05373194995253572
      w: 0.060636158141039134
---
header:
  stamp:
    sec: 1688998614
    nanosec: 318323217
  frame_id: camera_link
markers:
- id: 10
  pose:
    position:
      x: 0.016065764842042064
      y: 0.09021487028446766
      z: 1.5080391217051472
    orientation:
      x: 0.9965777642415139
      y: -0.016397978521109097
      z: -0.05373194995253572
      w: 0.060636158141039134
---
header:
  stamp:
    sec: 1688998614
    nanosec: 388290304
  frame_id: camera_link
markers:
- id: 10
  pose:
    position:
      x: 0.016065764842042064
      y: 0.09021487028446766
      z: 1.5080391217051472
    orientation:
      x: 0.9965777642415139
      y: -0.016397978521109097
      z: -0.05373194995253572
      w: 0.060636158141039134
---
header:
  stamp:
    sec: 1688998614
    nanosec: 442847480
  frame_id: camera_link
markers:
- id: 10
  pose:
    position:
      x: 0.016065764842042064
      y: 0.09021487028446766
      z: 1.5080391217051472
    orientation:
      x: 0.9965777642415139
      y: -0.016397978521109097
      z: -0.05373194995253572
      w: 0.060636158141039134
---
header:
  stamp:
    sec: 1688998614
    nanosec: 520083747
  frame_id: camera_link
markers:
- id: 10
  pose:
    position:
      x: 0.014742214552306928
      y: 0.08818894746703283
      z: 1.4726166280620836
    orientation:
      x: 0.995537083144766
      y: -0.020135716792451786
      z: -0.054456930674876634
      w: -0.07439698713212291
---
header:
  stamp:
    sec: 1688998614
    nanosec: 590997545
  frame_id: camera_link
markers:
- id: 10
  pose:
    position:
      x: 0.014742214552306928
      y: 0.08818894746703283
      z: 1.4726166280620836
    orientation:
      x: 0.995537083144766
      y: -0.020135716792451786
      z: -0.054456930674876634
      w: -0.07439698713212291
---
header:
  stamp:
    sec: 1688998614
    nanosec: 648670806
  frame_id: camera_link
markers:
- id: 10
  pose:
    position:
      x: 0.014742214552306928
      y: 0.08818894746703283
      z: 1.4726166280620836
    orientation:
      x: 0.995537083144766
      y: -0.020135716792451786
      z: -0.054456930674876634
      w: -0.07439698713212291
---
header:
  stamp:
    sec: 1688998614
    nanosec: 720298546
  frame_id: camera_link
markers:
- id: 10
  pose:
    position:
      x: 0.016065764842042064
      y: 0.09021487028446766
      z: 1.5080391217051472
    orientation:
      x: 0.9965777642415139
      y: -0.016397978521109097
      z: -0.05373194995253572
      w: 0.060636158141039134
---
header:
  stamp:
    sec: 1688998614
    nanosec: 791607850
  frame_id: camera_link
markers:
- id: 10
  pose:
    position:
      x: 0.016065764842042064
      y: 0.09021487028446766
      z: 1.5080391217051472
    orientation:
      x: 0.9965777642415139
      y: -0.016397978521109097
      z: -0.05373194995253572
      w: 0.060636158141039134
---
header:
  stamp:
    sec: 1688998614
    nanosec: 842444252
  frame_id: camera_link
markers:
- id: 10
  pose:
    position:
      x: 0.016065764842042064
      y: 0.09021487028446766
      z: 1.5080391217051472
    orientation:
      x: 0.9965777642415139
      y: -0.016397978521109097
      z: -0.05373194995253572
      w: 0.060636158141039134
---
header:
  stamp:
    sec: 1688998614
    nanosec: 934775277
  frame_id: camera_link
markers:
- id: 10
  pose:
    position:
      x: 0.016065764842042064
      y: 0.09021487028446766
      z: 1.5080391217051472
    orientation:
      x: 0.9965777642415139
      y: -0.016397978521109097
      z: -0.05373194995253572
      w: 0.060636158141039134
---
header:
  stamp:
    sec: 1688998615
    nanosec: 23423889
  frame_id: camera_link
markers:
- id: 10
  pose:
    position:
      x: 0.016065764842042064
      y: 0.09021487028446766
      z: 1.5080391217051472
    orientation:
      x: 0.9965777642415139
      y: -0.016397978521109097
      z: -0.05373194995253572
      w: 0.060636158141039134
---
header:
  stamp:
    sec: 1688998615
    nanosec: 103514447
  frame_id: camera_link
markers:
- id: 10
  pose:
    position:
      x: 0.016065764842042064
      y: 0.09021487028446766
      z: 1.5080391217051472
    orientation:
      x: 0.9965777642415139
      y: -0.016397978521109097
      z: -0.05373194995253572
      w: 0.060636158141039134
---
header:
  stamp:
    sec: 1688998615
    nanosec: 153799038
  frame_id: camera_link
markers:
- id: 10
  pose:
    position:
      x: 0.016065764842042064
      y: 0.09021487028446766
      z: 1.5080391217051472
    orientation:
      x: 0.9965777642415139
      y: -0.016397978521109097
      z: -0.05373194995253572
      w: 0.060636158141039134
---
header:
  stamp:
    sec: 1688998615
    nanosec: 220990580
  frame_id: camera_link
markers:
- id: 10
  pose:
    position:
      x: 0.016065764842042064
      y: 0.09021487028446766
      z: 1.5080391217051472
    orientation:
      x: 0.9965777642415139
      y: -0.016397978521109097
      z: -0.05373194995253572
      w: 0.060636158141039134
---
header:
  stamp:
    sec: 1688998615
    nanosec: 297085297
  frame_id: camera_link
markers:
- id: 10
  pose:
    position:
      x: 0.016065764842042064
      y: 0.09021487028446766
      z: 1.5080391217051472
    orientation:
      x: 0.9965777642415139
      y: -0.016397978521109097
      z: -0.05373194995253572
      w: 0.060636158141039134
---
header:
  stamp:
    sec: 1688998615
    nanosec: 359676085
  frame_id: camera_link
markers:
- id: 10
  pose:
    position:
      x: 0.016065764842042064
      y: 0.09021487028446766
      z: 1.5080391217051472
    orientation:
      x: 0.9965777642415139
      y: -0.016397978521109097
      z: -0.05373194995253572
      w: 0.060636158141039134
---
header:
  stamp:
    sec: 1688998615
    nanosec: 425613697
  frame_id: camera_link
markers:
- id: 10
  pose:
    position:
      x: 0.016065764842042064
      y: 0.09021487028446766
      z: 1.5080391217051472
    orientation:
      x: 0.9965777642415139
      y: -0.016397978521109097
      z: -0.05373194995253572
      w: 0.060636158141039134
---
header:
  stamp:
    sec: 1688998615
    nanosec: 485098185
  frame_id: camera_link
markers:
- id: 10
  pose:
    position:
      x: 0.01628440382676797
      y: 0.09118043477701855
      z: 1.5148549270304272
    orientation:
      x: 0.9997281795580202
      y: -0.01379881990125926
      z: -0.006813217667666719
      w: -0.017513983897229503
---
header:
  stamp:
    sec: 1688998615
    nanosec: 553009084
  frame_id: camera_link
markers:
- id: 10
  pose:
    position:
      x: 0.01628440382676797
      y: 0.09118043477701855
      z: 1.5148549270304272
    orientation:
      x: 0.9997281795580202
      y: -0.01379881990125926
      z: -0.006813217667666719
      w: -0.017513983897229503
---
header:
  stamp:
    sec: 1688998615
    nanosec: 599259349
  frame_id: camera_link
markers:
- id: 10
  pose:
    position:
      x: 0.01628440382676797
      y: 0.09118043477701855
      z: 1.5148549270304272
    orientation:
      x: 0.9997281795580202
      y: -0.01379881990125926
      z: -0.006813217667666719
      w: -0.017513983897229503
---
header:
  stamp:
    sec: 1688998615
    nanosec: 652670394
  frame_id: camera_link
markers:
- id: 10
  pose:
    position:
      x: 0.01628440382676797
      y: 0.09118043477701855
      z: 1.5148549270304272
    orientation:
      x: 0.9997281795580202
      y: -0.01379881990125926
      z: -0.006813217667666719
      w: -0.017513983897229503
---
header:
  stamp:
    sec: 1688998615
    nanosec: 716035727
  frame_id: camera_link
markers:
- id: 10
  pose:
    position:
      x: 0.01628440382676797
      y: 0.09118043477701855
      z: 1.5148549270304272
    orientation:
      x: 0.9997281795580202
      y: -0.01379881990125926
      z: -0.006813217667666719
      w: -0.017513983897229503
---
header:
  stamp:
    sec: 1688998615
    nanosec: 798927073
  frame_id: camera_link
markers:
- id: 10
  pose:
    position:
      x: 0.01628440382676797
      y: 0.09118043477701855
      z: 1.5148549270304272
    orientation:
      x: 0.9997281795580202
      y: -0.01379881990125926
      z: -0.006813217667666719
      w: -0.017513983897229503
---
header:
  stamp:
    sec: 1688998615
    nanosec: 856404344
  frame_id: camera_link
markers:
- id: 10
  pose:
    position:
      x: 0.01628440382676797
      y: 0.09118043477701855
      z: 1.5148549270304272
    orientation:
      x: 0.9997281795580202
      y: -0.01379881990125926
      z: -0.006813217667666719
      w: -0.017513983897229503
---
header:
  stamp:
    sec: 1688998615
    nanosec: 921367026
  frame_id: camera_link
markers:
- id: 10
  pose:
    position:
      x: 0.01628440382676797
      y: 0.09118043477701855
      z: 1.5148549270304272
    orientation:
      x: 0.9997281795580202
      y: -0.01379881990125926
      z: -0.006813217667666719
      w: -0.017513983897229503
---
header:
  stamp:
    sec: 1688998615
    nanosec: 984320769
  frame_id: camera_link
markers:
- id: 10
  pose:
    position:
      x: 0.01628440382676797
      y: 0.09118043477701855
      z: 1.5148549270304272
    orientation:
      x: 0.9997281795580202
      y: -0.01379881990125926
      z: -0.006813217667666719
      w: -0.017513983897229503
---
header:
  stamp:
    sec: 1688998616
    nanosec: 54568333
  frame_id: camera_link
markers:
- id: 10
  pose:
    position:
      x: 0.01628440382676797
      y: 0.09118043477701855
      z: 1.5148549270304272
    orientation:
      x: 0.9997281795580202
      y: -0.01379881990125926
      z: -0.006813217667666719
      w: -0.017513983897229503
---
header:
  stamp:
    sec: 1688998616
    nanosec: 113465463
  frame_id: camera_link
markers:
- id: 10
  pose:
    position:
      x: 0.014742214552306928
      y: 0.08818894746703283
      z: 1.4726166280620836
    orientation:
      x: 0.995537083144766
      y: -0.020135716792451786
      z: -0.054456930674876634
      w: -0.07439698713212291
---
header:
  stamp:
    sec: 1688998616
    nanosec: 189538813
  frame_id: camera_link
markers:
- id: 10
  pose:
    position:
      x: 0.014742214552306928
      y: 0.08818894746703283
      z: 1.4726166280620836
    orientation:
      x: 0.995537083144766
      y: -0.020135716792451786
      z: -0.054456930674876634
      w: -0.07439698713212291
---
header:
  stamp:
    sec: 1688998616
    nanosec: 248645871
  frame_id: camera_link
markers:
- id: 10
  pose:
    position:
      x: 0.014742214552306928
      y: 0.08818894746703283
      z: 1.4726166280620836
    orientation:
      x: 0.995537083144766
      y: -0.020135716792451786
      z: -0.054456930674876634
      w: -0.07439698713212291
---
header:
  stamp:
    sec: 1688998616
    nanosec: 320458068
  frame_id: camera_link
markers:
- id: 10
  pose:
    position:
      x: 0.014742214552306928
      y: 0.08818894746703283
      z: 1.4726166280620836
    orientation:
      x: 0.995537083144766
      y: -0.020135716792451786
      z: -0.054456930674876634
      w: -0.07439698713212291
---
header:
  stamp:
    sec: 1688998616
    nanosec: 370070152
  frame_id: camera_link
markers:
- id: 10
  pose:
    position:
      x: 0.014742214552306928
      y: 0.08818894746703283
      z: 1.4726166280620836
    orientation:
      x: 0.995537083144766
      y: -0.020135716792451786
      z: -0.054456930674876634
      w: -0.07439698713212291
---
header:
  stamp:
    sec: 1688998616
    nanosec: 438380467
  frame_id: camera_link
markers:
- id: 10
  pose:
    position:
      x: 0.014742214552306928
      y: 0.08818894746703283
      z: 1.4726166280620836
    orientation:
      x: 0.995537083144766
      y: -0.020135716792451786
      z: -0.054456930674876634
      w: -0.07439698713212291
---
header:
  stamp:
    sec: 1688998616
    nanosec: 489003993
  frame_id: camera_link
markers:
- id: 10
  pose:
    position:
      x: 0.014742214552306928
      y: 0.08818894746703283
      z: 1.4726166280620836
    orientation:
      x: 0.995537083144766
      y: -0.020135716792451786
      z: -0.054456930674876634
      w: -0.07439698713212291
---
header:
  stamp:
    sec: 1688998616
    nanosec: 601672711
  frame_id: camera_link
markers:
- id: 10
  pose:
    position:
      x: 0.016065764842042064
      y: 0.09021487028446766
      z: 1.5080391217051472
    orientation:
      x: 0.9965777642415139
      y: -0.016397978521109097
      z: -0.05373194995253572
      w: 0.060636158141039134
---
header:
  stamp:
    sec: 1688998616
    nanosec: 695151738
  frame_id: camera_link
markers:
- id: 10
  pose:
    position:
      x: 0.016065764842042064
      y: 0.09021487028446766
      z: 1.5080391217051472
    orientation:
      x: 0.9965777642415139
      y: -0.016397978521109097
      z: -0.05373194995253572
      w: 0.060636158141039134
---
header:
  stamp:
    sec: 1688998616
    nanosec: 775553708
  frame_id: camera_link
markers:
- id: 10
  pose:
    position:
      x: 0.016065764842042064
      y: 0.09021487028446766
      z: 1.5080391217051472
    orientation:
      x: 0.9965777642415139
      y: -0.016397978521109097
      z: -0.05373194995253572
      w: 0.060636158141039134
---
header:
  stamp:
    sec: 1688998616
    nanosec: 834550812
  frame_id: camera_link
markers:
- id: 10
  pose:
    position:
      x: 0.014724958760893483
      y: 0.08849793591330864
      z: 1.471790866165915
    orientation:
      x: 0.9940476753496095
      y: -0.01868409113318228
      z: -0.05798801643387235
      w: -0.09031895604262322
---
header:
  stamp:
    sec: 1688998616
    nanosec: 891239438
  frame_id: camera_link
markers:
- id: 10
  pose:
    position:
      x: 0.014724958760893483
      y: 0.08849793591330864
      z: 1.471790866165915
    orientation:
      x: 0.9940476753496095
      y: -0.01868409113318228
      z: -0.05798801643387235
      w: -0.09031895604262322
---
header:
  stamp:
    sec: 1688998616
    nanosec: 940648040
  frame_id: camera_link
markers:
- id: 10
  pose:
    position:
      x: 0.014724958760893483
      y: 0.08849793591330864
      z: 1.471790866165915
    orientation:
      x: 0.9940476753496095
      y: -0.01868409113318228
      z: -0.05798801643387235
      w: -0.09031895604262322
---
header:
  stamp:
    sec: 1688998616
    nanosec: 990179049
  frame_id: camera_link
markers:
- id: 10
  pose:
    position:
      x: 0.014724958760893483
      y: 0.08849793591330864
      z: 1.471790866165915
    orientation:
      x: 0.9940476753496095
      y: -0.01868409113318228
      z: -0.05798801643387235
      w: -0.09031895604262322
---
header:
  stamp:
    sec: 1688998617
    nanosec: 50342243
  frame_id: camera_link
markers:
- id: 10
  pose:
    position:
      x: 0.014724958760893483
      y: 0.08849793591330864
      z: 1.471790866165915
    orientation:
      x: 0.9940476753496095
      y: -0.01868409113318228
      z: -0.05798801643387235
      w: -0.09031895604262322
---
header:
  stamp:
    sec: 1688998617
    nanosec: 101063401
  frame_id: camera_link
markers:
- id: 10
  pose:
    position:
      x: 0.014742214552306928
      y: 0.08818894746703283
      z: 1.4726166280620836
    orientation:
      x: 0.995537083144766
      y: -0.020135716792451786
      z: -0.054456930674876634
      w: -0.07439698713212291
---
header:
  stamp:
    sec: 1688998617
    nanosec: 153203078
  frame_id: camera_link
markers:
- id: 10
  pose:
    position:
      x: 0.014742214552306928
      y: 0.08818894746703283
      z: 1.4726166280620836
    orientation:
      x: 0.995537083144766
      y: -0.020135716792451786
      z: -0.054456930674876634
      w: -0.07439698713212291
---
header:
  stamp:
    sec: 1688998617
    nanosec: 227968193
  frame_id: camera_link
markers:
- id: 10
  pose:
    position:
      x: 0.014742214552306928
      y: 0.08818894746703283
      z: 1.4726166280620836
    orientation:
      x: 0.995537083144766
      y: -0.020135716792451786
      z: -0.054456930674876634
      w: -0.07439698713212291
---
header:
  stamp:
    sec: 1688998617
    nanosec: 292331578
  frame_id: camera_link
markers:
- id: 10
  pose:
    position:
      x: 0.014742214552306928
      y: 0.08818894746703283
      z: 1.4726166280620836
    orientation:
      x: 0.995537083144766
      y: -0.020135716792451786
      z: -0.054456930674876634
      w: -0.07439698713212291
---
header:
  stamp:
    sec: 1688998617
    nanosec: 427062640
  frame_id: camera_link
markers:
- id: 10
  pose:
    position:
      x: 0.014742214552306928
      y: 0.08818894746703283
      z: 1.4726166280620836
    orientation:
      x: 0.995537083144766
      y: -0.020135716792451786
      z: -0.054456930674876634
      w: -0.07439698713212291
---
header:
  stamp:
    sec: 1688998617
    nanosec: 477218900
  frame_id: camera_link
markers:
- id: 10
  pose:
    position:
      x: 0.014742214552306928
      y: 0.08818894746703283
      z: 1.4726166280620836
    orientation:
      x: 0.995537083144766
      y: -0.020135716792451786
      z: -0.054456930674876634
      w: -0.07439698713212291
---
header:
  stamp:
    sec: 1688998617
    nanosec: 526113751
  frame_id: camera_link
markers:
- id: 10
  pose:
    position:
      x: 0.01628440382676797
      y: 0.09118043477701855
      z: 1.5148549270304272
    orientation:
      x: 0.9997281795580202
      y: -0.01379881990125926
      z: -0.006813217667666719
      w: -0.017513983897229503
---
header:
  stamp:
    sec: 1688998617
    nanosec: 587207652
  frame_id: camera_link
markers:
- id: 10
  pose:
    position:
      x: 0.01628440382676797
      y: 0.09118043477701855
      z: 1.5148549270304272
    orientation:
      x: 0.9997281795580202
      y: -0.01379881990125926
      z: -0.006813217667666719
      w: -0.017513983897229503
---
header:
  stamp:
    sec: 1688998617
    nanosec: 646384894
  frame_id: camera_link
markers:
- id: 10
  pose:
    position:
      x: 0.01628440382676797
      y: 0.09118043477701855
      z: 1.5148549270304272
    orientation:
      x: 0.9997281795580202
      y: -0.01379881990125926
      z: -0.006813217667666719
      w: -0.017513983897229503
---
header:
  stamp:
    sec: 1688998617
    nanosec: 720749570
  frame_id: camera_link
markers:
- id: 10
  pose:
    position:
      x: 0.01628440382676797
      y: 0.09118043477701855
      z: 1.5148549270304272
    orientation:
      x: 0.9997281795580202
      y: -0.01379881990125926
      z: -0.006813217667666719
      w: -0.017513983897229503
---
header:
  stamp:
    sec: 1688998617
    nanosec: 787931928
  frame_id: camera_link
markers:
- id: 10
  pose:
    position:
      x: 0.01628440382676797
      y: 0.09118043477701855
      z: 1.5148549270304272
    orientation:
      x: 0.9997281795580202
      y: -0.01379881990125926
      z: -0.006813217667666719
      w: -0.017513983897229503
---
header:
  stamp:
    sec: 1688998617
    nanosec: 849488888
  frame_id: camera_link
markers:
- id: 10
  pose:
    position:
      x: 0.014742214552306928
      y: 0.08818894746703283
      z: 1.4726166280620836
    orientation:
      x: 0.995537083144766
      y: -0.020135716792451786
      z: -0.054456930674876634
      w: -0.07439698713212291
---
header:
  stamp:
    sec: 1688998617
    nanosec: 914911838
  frame_id: camera_link
markers:
- id: 10
  pose:
    position:
      x: 0.014742214552306928
      y: 0.08818894746703283
      z: 1.4726166280620836
    orientation:
      x: 0.995537083144766
      y: -0.020135716792451786
      z: -0.054456930674876634
      w: -0.07439698713212291
---
header:
  stamp:
    sec: 1688998617
    nanosec: 983255604
  frame_id: camera_link
markers:
- id: 10
  pose:
    position:
      x: 0.014742214552306928
      y: 0.08818894746703283
      z: 1.4726166280620836
    orientation:
      x: 0.995537083144766
      y: -0.020135716792451786
      z: -0.054456930674876634
      w: -0.07439698713212291
---
header:
  stamp:
    sec: 1688998618
    nanosec: 50752395
  frame_id: camera_link
markers:
- id: 10
  pose:
    position:
      x: 0.014742214552306928
      y: 0.08818894746703283
      z: 1.4726166280620836
    orientation:
      x: 0.995537083144766
      y: -0.020135716792451786
      z: -0.054456930674876634
      w: -0.07439698713212291
---
header:
  stamp:
    sec: 1688998618
    nanosec: 130579536
  frame_id: camera_link
markers:
- id: 10
  pose:
    position:
      x: 0.016065764842042064
      y: 0.09021487028446766
      z: 1.5080391217051472
    orientation:
      x: 0.9965777642415139
      y: -0.016397978521109097
      z: -0.05373194995253572
      w: 0.060636158141039134
---
header:
  stamp:
    sec: 1688998618
    nanosec: 190723900
  frame_id: camera_link
markers:
- id: 10
  pose:
    position:
      x: 0.016065764842042064
      y: 0.09021487028446766
      z: 1.5080391217051472
    orientation:
      x: 0.9965777642415139
      y: -0.016397978521109097
      z: -0.05373194995253572
      w: 0.060636158141039134
---
header:
  stamp:
    sec: 1688998618
    nanosec: 241762175
  frame_id: camera_link
markers:
- id: 10
  pose:
    position:
      x: 0.016065764842042064
      y: 0.09021487028446766
      z: 1.5080391217051472
    orientation:
      x: 0.9965777642415139
      y: -0.016397978521109097
      z: -0.05373194995253572
      w: 0.060636158141039134
---
header:
  stamp:
    sec: 1688998618
    nanosec: 289346972
  frame_id: camera_link
markers:
- id: 10
  pose:
    position:
      x: 0.016065764842042064
      y: 0.09021487028446766
      z: 1.5080391217051472
    orientation:
      x: 0.9965777642415139
      y: -0.016397978521109097
      z: -0.05373194995253572
      w: 0.060636158141039134
---
header:
  stamp:
    sec: 1688998618
    nanosec: 362887160
  frame_id: camera_link
markers:
- id: 10
  pose:
    position:
      x: 0.016065764842042064
      y: 0.09021487028446766
      z: 1.5080391217051472
    orientation:
      x: 0.9965777642415139
      y: -0.016397978521109097
      z: -0.05373194995253572
      w: 0.060636158141039134
---
header:
  stamp:
    sec: 1688998618
    nanosec: 420581881
  frame_id: camera_link
markers:
- id: 10
  pose:
    position:
      x: 0.016065764842042064
      y: 0.09021487028446766
      z: 1.5080391217051472
    orientation:
      x: 0.9965777642415139
      y: -0.016397978521109097
      z: -0.05373194995253572
      w: 0.060636158141039134
---
header:
  stamp:
    sec: 1688998618
    nanosec: 488278815
  frame_id: camera_link
markers:
- id: 10
  pose:
    position:
      x: 0.01628440382676797
      y: 0.09118043477701855
      z: 1.5148549270304272
    orientation:
      x: 0.9997281795580202
      y: -0.01379881990125926
      z: -0.006813217667666719
      w: -0.017513983897229503
- id: 110
  pose:
    position:
      x: -2.2582504710023494
      y: -1.0253400558004644
      z: 2.27825651542306
    orientation:
      x: 0.3766142983281131
      y: 0.7284339680634278
      z: -0.44553390711742114
      w: 0.3592285652267607
---
header:
  stamp:
    sec: 1688998618
    nanosec: 533566480
  frame_id: camera_link
markers:
- id: 10
  pose:
    position:
      x: 0.01628440382676797
      y: 0.09118043477701855
      z: 1.5148549270304272
    orientation:
      x: 0.9997281795580202
      y: -0.01379881990125926
      z: -0.006813217667666719
      w: -0.017513983897229503
---
header:
  stamp:
    sec: 1688998618
    nanosec: 591727375
  frame_id: camera_link
markers:
- id: 10
  pose:
    position:
      x: 0.01628440382676797
      y: 0.09118043477701855
      z: 1.5148549270304272
    orientation:
      x: 0.9997281795580202
      y: -0.01379881990125926
      z: -0.006813217667666719
      w: -0.017513983897229503
- id: 901
  pose:
    position:
      x: -0.3888301475514261
      y: 0.41449507170972094
      z: 2.5238475947922128
    orientation:
      x: -0.538050929328404
      y: 0.588502398772401
      z: 0.4071726986268426
      w: 0.4453947884527895
---
header:
  stamp:
    sec: 1688998618
    nanosec: 652997942
  frame_id: camera_link
markers:
- id: 10
  pose:
    position:
      x: 0.01628440382676797
      y: 0.09118043477701855
      z: 1.5148549270304272
    orientation:
      x: 0.9997281795580202
      y: -0.01379881990125926
      z: -0.006813217667666719
      w: -0.017513983897229503
- id: 901
  pose:
    position:
      x: -0.3888301475514261
      y: 0.41449507170972094
      z: 2.5238475947922128
    orientation:
      x: -0.538050929328404
      y: 0.588502398772401
      z: 0.4071726986268426
      w: 0.4453947884527895
---
header:
  stamp:
    sec: 1688998618
    nanosec: 724937716
  frame_id: camera_link
markers:
- id: 10
  pose:
    position:
      x: 0.01628440382676797
      y: 0.09118043477701855
      z: 1.5148549270304272
    orientation:
      x: 0.9997281795580202
      y: -0.01379881990125926
      z: -0.006813217667666719
      w: -0.017513983897229503
- id: 901
  pose:
    position:
      x: -0.3888301475514261
      y: 0.41449507170972094
      z: 2.5238475947922128
    orientation:
      x: -0.538050929328404
      y: 0.588502398772401
      z: 0.4071726986268426
      w: 0.4453947884527895
---
header:
  stamp:
    sec: 1688998618
    nanosec: 797917803
  frame_id: camera_link
markers:
- id: 10
  pose:
    position:
      x: 0.01628440382676797
      y: 0.09118043477701855
      z: 1.5148549270304272
    orientation:
      x: 0.9997281795580202
      y: -0.01379881990125926
      z: -0.006813217667666719
      w: -0.017513983897229503
- id: 901
  pose:
    position:
      x: -0.3888301475514261
      y: 0.41449507170972094
      z: 2.5238475947922128
    orientation:
      x: -0.538050929328404
      y: 0.588502398772401
      z: 0.4071726986268426
      w: 0.4453947884527895
---
header:
  stamp:
    sec: 1688998618
    nanosec: 851941598
  frame_id: camera_link
markers:
- id: 10
  pose:
    position:
      x: 0.016065764842042064
      y: 0.09021487028446766
      z: 1.5080391217051472
    orientation:
      x: 0.9965777642415139
      y: -0.016397978521109097
      z: -0.05373194995253572
      w: 0.060636158141039134
---
header:
  stamp:
    sec: 1688998618
    nanosec: 913300811
  frame_id: camera_link
markers:
- id: 10
  pose:
    position:
      x: 0.016065764842042064
      y: 0.09021487028446766
      z: 1.5080391217051472
    orientation:
      x: 0.9965777642415139
      y: -0.016397978521109097
      z: -0.05373194995253572
      w: 0.060636158141039134
---
header:
  stamp:
    sec: 1688998618
    nanosec: 998597875
  frame_id: camera_link
markers:
- id: 10
  pose:
    position:
      x: 0.016065764842042064
      y: 0.09021487028446766
      z: 1.5080391217051472
    orientation:
      x: 0.9965777642415139
      y: -0.016397978521109097
      z: -0.05373194995253572
      w: 0.060636158141039134
---
header:
  stamp:
    sec: 1688998619
    nanosec: 51828351
  frame_id: camera_link
markers:
- id: 10
  pose:
    position:
      x: 0.016065764842042064
      y: 0.09021487028446766
      z: 1.5080391217051472
    orientation:
      x: 0.9965777642415139
      y: -0.016397978521109097
      z: -0.05373194995253572
      w: 0.060636158141039134
---
header:
  stamp:
    sec: 1688998619
    nanosec: 113798589
  frame_id: camera_link
markers:
- id: 10
  pose:
    position:
      x: 0.016065764842042064
      y: 0.09021487028446766
      z: 1.5080391217051472
    orientation:
      x: 0.9965777642415139
      y: -0.016397978521109097
      z: -0.05373194995253572
      w: 0.060636158141039134
---
header:
  stamp:
    sec: 1688998619
    nanosec: 194436031
  frame_id: camera_link
markers:
- id: 10
  pose:
    position:
      x: 0.016065764842042064
      y: 0.09021487028446766
      z: 1.5080391217051472
    orientation:
      x: 0.9965777642415139
      y: -0.016397978521109097
      z: -0.05373194995253572
      w: 0.060636158141039134
---
header:
  stamp:
    sec: 1688998619
    nanosec: 251374808
  frame_id: camera_link
markers:
- id: 10
  pose:
    position:
      x: 0.016065764842042064
      y: 0.09021487028446766
      z: 1.5080391217051472
    orientation:
      x: 0.9965777642415139
      y: -0.016397978521109097
      z: -0.05373194995253572
      w: 0.060636158141039134
---
header:
  stamp:
    sec: 1688998619
    nanosec: 306824923
  frame_id: camera_link
markers:
- id: 10
  pose:
    position:
      x: 0.016065764842042064
      y: 0.09021487028446766
      z: 1.5080391217051472
    orientation:
      x: 0.9965777642415139
      y: -0.016397978521109097
      z: -0.05373194995253572
      w: 0.060636158141039134
---
header:
  stamp:
    sec: 1688998619
    nanosec: 393806502
  frame_id: camera_link
markers:
- id: 10
  pose:
    position:
      x: 0.016065764842042064
      y: 0.09021487028446766
      z: 1.5080391217051472
    orientation:
      x: 0.9965777642415139
      y: -0.016397978521109097
      z: -0.05373194995253572
      w: 0.060636158141039134
---
header:
  stamp:
    sec: 1688998619
    nanosec: 448962028
  frame_id: camera_link
markers:
- id: 10
  pose:
    position:
      x: 0.016065764842042064
      y: 0.09021487028446766
      z: 1.5080391217051472
    orientation:
      x: 0.9965777642415139
      y: -0.016397978521109097
      z: -0.05373194995253572
      w: 0.060636158141039134
---
header:
  stamp:
    sec: 1688998619
    nanosec: 500896203
  frame_id: camera_link
markers:
- id: 10
  pose:
    position:
      x: 0.016065764842042064
      y: 0.09021487028446766
      z: 1.5080391217051472
    orientation:
      x: 0.9965777642415139
      y: -0.016397978521109097
      z: -0.05373194995253572
      w: 0.060636158141039134
---
header:
  stamp:
    sec: 1688998619
    nanosec: 553229223
  frame_id: camera_link
markers:
- id: 10
  pose:
    position:
      x: 0.01628440382676797
      y: 0.09118043477701855
      z: 1.5148549270304272
    orientation:
      x: 0.9997281795580202
      y: -0.01379881990125926
      z: -0.006813217667666719
      w: -0.017513983897229503
---
header:
  stamp:
    sec: 1688998619
    nanosec: 615669463
  frame_id: camera_link
markers:
- id: 10
  pose:
    position:
      x: 0.01628440382676797
      y: 0.09118043477701855
      z: 1.5148549270304272
    orientation:
      x: 0.9997281795580202
      y: -0.01379881990125926
      z: -0.006813217667666719
      w: -0.017513983897229503
---
header:
  stamp:
    sec: 1688998619
    nanosec: 682492677
  frame_id: camera_link
markers:
- id: 10
  pose:
    position:
      x: 0.01628440382676797
      y: 0.09118043477701855
      z: 1.5148549270304272
    orientation:
      x: 0.9997281795580202
      y: -0.01379881990125926
      z: -0.006813217667666719
      w: -0.017513983897229503
---
header:
  stamp:
    sec: 1688998619
    nanosec: 752217205
  frame_id: camera_link
markers:
- id: 10
  pose:
    position:
      x: 0.01628440382676797
      y: 0.09118043477701855
      z: 1.5148549270304272
    orientation:
      x: 0.9997281795580202
      y: -0.01379881990125926
      z: -0.006813217667666719
      w: -0.017513983897229503
---
header:
  stamp:
    sec: 1688998619
    nanosec: 797942000
  frame_id: camera_link
markers:
- id: 10
  pose:
    position:
      x: 0.01628440382676797
      y: 0.09118043477701855
      z: 1.5148549270304272
    orientation:
      x: 0.9997281795580202
      y: -0.01379881990125926
      z: -0.006813217667666719
      w: -0.017513983897229503
---
header:
  stamp:
    sec: 1688998619
    nanosec: 848115570
  frame_id: camera_link
markers:
- id: 10
  pose:
    position:
      x: 0.016065764842042064
      y: 0.09021487028446766
      z: 1.5080391217051472
    orientation:
      x: 0.9965777642415139
      y: -0.016397978521109097
      z: -0.05373194995253572
      w: 0.060636158141039134
---
header:
  stamp:
    sec: 1688998619
    nanosec: 895915085
  frame_id: camera_link
markers:
- id: 10
  pose:
    position:
      x: 0.016065764842042064
      y: 0.09021487028446766
      z: 1.5080391217051472
    orientation:
      x: 0.9965777642415139
      y: -0.016397978521109097
      z: -0.05373194995253572
      w: 0.060636158141039134
---
header:
  stamp:
    sec: 1688998619
    nanosec: 989921569
  frame_id: camera_link
markers:
- id: 10
  pose:
    position:
      x: 0.016065764842042064
      y: 0.09021487028446766
      z: 1.5080391217051472
    orientation:
      x: 0.9965777642415139
      y: -0.016397978521109097
      z: -0.05373194995253572
      w: 0.060636158141039134
---
header:
  stamp:
    sec: 1688998620
    nanosec: 49173864
  frame_id: camera_link
markers:
- id: 10
  pose:
    position:
      x: 0.016065764842042064
      y: 0.09021487028446766
      z: 1.5080391217051472
    orientation:
      x: 0.9965777642415139
      y: -0.016397978521109097
      z: -0.05373194995253572
      w: 0.060636158141039134
---
header:
  stamp:
    sec: 1688998620
    nanosec: 115097855
  frame_id: camera_link
markers:
- id: 10
  pose:
    position:
      x: 0.01628440382676797
      y: 0.09118043477701855
      z: 1.5148549270304272
    orientation:
      x: 0.9997281795580202
      y: -0.01379881990125926
      z: -0.006813217667666719
      w: -0.017513983897229503
---
header:
  stamp:
    sec: 1688998620
    nanosec: 156534382
  frame_id: camera_link
markers:
- id: 10
  pose:
    position:
      x: 0.01628440382676797
      y: 0.09118043477701855
      z: 1.5148549270304272
    orientation:
      x: 0.9997281795580202
      y: -0.01379881990125926
      z: -0.006813217667666719
      w: -0.017513983897229503
---
header:
  stamp:
    sec: 1688998620
    nanosec: 214482299
  frame_id: camera_link
markers:
- id: 10
  pose:
    position:
      x: 0.014724958760893483
      y: 0.08849793591330864
      z: 1.471790866165915
    orientation:
      x: 0.9940476753496095
      y: -0.01868409113318228
      z: -0.05798801643387235
      w: -0.09031895604262322
---
header:
  stamp:
    sec: 1688998620
    nanosec: 286481660
  frame_id: camera_link
markers:
- id: 10
  pose:
    position:
      x: 0.014724958760893483
      y: 0.08849793591330864
      z: 1.471790866165915
    orientation:
      x: 0.9940476753496095
      y: -0.01868409113318228
      z: -0.05798801643387235
      w: -0.09031895604262322
---
header:
  stamp:
    sec: 1688998620
    nanosec: 360173918
  frame_id: camera_link
markers:
- id: 10
  pose:
    position:
      x: 0.014724958760893483
      y: 0.08849793591330864
      z: 1.471790866165915
    orientation:
      x: 0.9940476753496095
      y: -0.01868409113318228
      z: -0.05798801643387235
      w: -0.09031895604262322
---
header:
  stamp:
    sec: 1688998620
    nanosec: 414792201
  frame_id: camera_link
markers:
- id: 10
  pose:
    position:
      x: 0.014724958760893483
      y: 0.08849793591330864
      z: 1.471790866165915
    orientation:
      x: 0.9940476753496095
      y: -0.01868409113318228
      z: -0.05798801643387235
      w: -0.09031895604262322
---
header:
  stamp:
    sec: 1688998620
    nanosec: 461820247
  frame_id: camera_link
markers:
- id: 10
  pose:
    position:
      x: 0.014724958760893483
      y: 0.08849793591330864
      z: 1.471790866165915
    orientation:
      x: 0.9940476753496095
      y: -0.01868409113318228
      z: -0.05798801643387235
      w: -0.09031895604262322
---
header:
  stamp:
    sec: 1688998620
    nanosec: 515841270
  frame_id: camera_link
markers:
- id: 10
  pose:
    position:
      x: 0.014724958760893483
      y: 0.08849793591330864
      z: 1.471790866165915
    orientation:
      x: 0.9940476753496095
      y: -0.01868409113318228
      z: -0.05798801643387235
      w: -0.09031895604262322
---
header:
  stamp:
    sec: 1688998620
    nanosec: 561214113
  frame_id: camera_link
markers:
- id: 10
  pose:
    position:
      x: 0.016065764842042064
      y: 0.09021487028446766
      z: 1.5080391217051472
    orientation:
      x: 0.9965777642415139
      y: -0.016397978521109097
      z: -0.05373194995253572
      w: 0.060636158141039134
---
header:
  stamp:
    sec: 1688998620
    nanosec: 637303202
  frame_id: camera_link
markers:
- id: 10
  pose:
    position:
      x: 0.016065764842042064
      y: 0.09021487028446766
      z: 1.5080391217051472
    orientation:
      x: 0.9965777642415139
      y: -0.016397978521109097
      z: -0.05373194995253572
      w: 0.060636158141039134
---
header:
  stamp:
    sec: 1688998620
    nanosec: 689615805
  frame_id: camera_link
markers:
- id: 10
  pose:
    position:
      x: 0.016065764842042064
      y: 0.09021487028446766
      z: 1.5080391217051472
    orientation:
      x: 0.9965777642415139
      y: -0.016397978521109097
      z: -0.05373194995253572
      w: 0.060636158141039134
---
header:
  stamp:
    sec: 1688998620
    nanosec: 756904519
  frame_id: camera_link
markers:
- id: 10
  pose:
    position:
      x: 0.016065764842042064
      y: 0.09021487028446766
      z: 1.5080391217051472
    orientation:
      x: 0.9965777642415139
      y: -0.016397978521109097
      z: -0.05373194995253572
      w: 0.060636158141039134
- id: 653
  pose:
    position:
      x: 0.5123403652181883
      y: 0.31748356304024594
      z: 3.013505522015838
    orientation:
      x: -0.4565191806645895
      y: 0.6438937023960273
      z: 0.5038694323575985
      w: 0.3508656905935653
---
header:
  stamp:
    sec: 1688998620
    nanosec: 814056785
  frame_id: camera_link
markers:
- id: 10
  pose:
    position:
      x: 0.014742214552306928
      y: 0.08818894746703283
      z: 1.4726166280620836
    orientation:
      x: 0.995537083144766
      y: -0.020135716792451786
      z: -0.054456930674876634
      w: -0.07439698713212291
---
header:
  stamp:
    sec: 1688998620
    nanosec: 893096437
  frame_id: camera_link
markers:
- id: 10
  pose:
    position:
      x: 0.014742214552306928
      y: 0.08818894746703283
      z: 1.4726166280620836
    orientation:
      x: 0.995537083144766
      y: -0.020135716792451786
      z: -0.054456930674876634
      w: -0.07439698713212291
---
header:
  stamp:
    sec: 1688998620
    nanosec: 985863758
  frame_id: camera_link
markers:
- id: 10
  pose:
    position:
      x: 0.01628440382676797
      y: 0.09118043477701855
      z: 1.5148549270304272
    orientation:
      x: 0.9997281795580202
      y: -0.01379881990125926
      z: -0.006813217667666719
      w: -0.017513983897229503
---
header:
  stamp:
    sec: 1688998621
    nanosec: 54072726
  frame_id: camera_link
markers:
- id: 10
  pose:
    position:
      x: 0.014742214552306928
      y: 0.08818894746703283
      z: 1.4726166280620836
    orientation:
      x: 0.995537083144766
      y: -0.020135716792451786
      z: -0.054456930674876634
      w: -0.07439698713212291
---
